~Version Information
VERS.     2.0  :CWLS LOG ASCII STANDARD - VERSION 2.0
WRAP.      NO  :ONE LINE PER DEPTH STEP
#MNEM   .UNIT                      DATA   INFORMATION
#----------------------------------------------------
~Well Information Block
 STRT   .F                      1650.00   :Start Depth
 STOP   .F                      5754.00   :Stop Depth
 STEP   .F                         1.00   :Step Value
 NULL   .                       -9999.0   :Null Value
 COMP   .              White Oak Energy   :COMPANY
 WELL   .             HC Cockburn #196H   :WELL
  FLD   .                                 :FIELD
  LOC   .                       Wharton   :LOCATION
 CNTY   .                       Wharton   :COUNTY
 STAT   .                         Texas   :STATE
 CTRY   .                           USA   :COUNTRY
 SRVC   . Supreme Source Energy Services Inc.   :SERVICE COMPANY
 DATE   .                    01/08/2018   :LOG DATE
  API   .                  42-481-35422   :API NUMBER
ELEVKB   .F                         18.8   :Elevation KB
ELEVDF   .F                           71   :Elevation DF
ELEVGL   .F                         89.8   :Elevation GL
# MNEM   .UNIT    DATA   INFORMATION
#----------------------------------------
~Curve Information
   DEP   .F             :Depth
  gama   .API           :Gamma
   tvd   .ft            :TVD
    vs   .ft            :VS
   Inc   .0             :Inclination
   Azm   .0             :Azimuth
   ROP   .0             :ROP
   gas   .Pct           :Gas Avg
#   DEP      gama       tvd        vs       Inc       Azm       ROP       gas
#------------------------------------------------------------------------------
~ASCII LOG DATA SECTION
# ...
2105.00	77.00	2104.77	16.34	1.41	251.40	134.93	-9999.00
2106.00	67.00	2105.77	16.34	1.41	251.40	147.47	-9999.00
2107.00	65.00	2106.77	16.34	1.41	251.40	167.76	-9999.00
2108.00	67.00	2107.77	16.34	1.41	251.40	181.57	-9999.00
2109.00	61.00	2108.77	16.34	1.41	251.40	171.91	-9999.00
2110.00	57.00	2109.77	16.34	1.41	251.40	199.47	-9999.00
2111.00	59.00	2110.77	16.35	1.41	251.40	256.34	-9999.00
2112.00	56.00	2111.77	16.35	1.41	251.40	316.18	-9999.00
2113.00	49.00	2112.77	16.35	1.41	251.40	360.95	-9999.00
2114.00	48.00	2113.77	16.35	1.06	239.80	437.77	-9999.00
2115.00	44.00	2114.77	16.35	1.06	239.80	376.97	-9999.00
2116.00	50.00	2115.77	16.35	1.06	239.80	354.92	-9999.00
2117.00	46.00	2116.77	16.36	1.06	239.80	315.95	-9999.00
2118.00	51.00	2117.77	16.36	1.06	239.80	294.95	-9999.00
2119.00	53.00	2118.77	16.36	1.06	239.80	295.28	-9999.00
2120.00	56.00	2119.77	16.37	1.06	239.80	295.62	-9999.00
2121.00	58.00	2120.77	16.37	1.06	239.80	295.59	-9999.00
2122.00	60.00	2121.77	16.38	1.06	239.80	294.68	-9999.00
2123.00	63.00	2122.77	16.38	1.06	239.80	289.12	-9999.00
2124.00	65.00	2123.77	16.38	1.06	239.80	290.47	-9999.00
2125.00	68.00	2124.77	16.39	1.06	239.80	295.77	-9999.00
2126.00	70.00	2125.77	16.39	1.06	239.80	222.82	-9999.00
2127.00	72.00	2126.77	16.39	1.06	239.80	163.12	-9999.00
2128.00	75.00	2127.77	16.40	1.06	239.80	145.73	-9999.00
2129.00	77.00	2128.77	16.40	1.06	239.80	140.88	-9999.00
2130.00	69.00	2129.77	16.40	1.06	239.80	120.56	-9999.00
2131.00	63.00	2130.77	16.41	1.06	239.80	121.76	-9999.00
2132.00	70.00	2131.77	16.41	1.06	239.80	149.63	-9999.00
2133.00	77.00	2132.77	16.41	1.06	239.80	215.03	-9999.00
2134.00	80.00	2133.77	16.42	1.06	239.80	212.33	-9999.00
2135.00	76.00	2134.77	16.42	1.06	239.80	112.24	-9999.00
2136.00	81.00	2135.77	16.42	1.06	239.80	109.51	-9999.00
2137.00	68.00	2136.77	16.43	1.06	239.80	106.27	-9999.00
2138.00	61.00	2137.77	16.43	1.06	239.80	113.85	-9999.00
2139.00	73.00	2138.77	16.44	1.06	239.80	114.79	-9999.00
2140.00	74.00	2139.77	16.44	1.06	239.80	128.15	-9999.00
2141.00	70.00	2140.77	16.44	1.06	239.80	120.57	-9999.00
2142.00	75.00	2141.77	16.45	1.06	239.80	109.35	-9999.00
2143.00	67.00	2142.77	16.45	1.06	239.80	100.32	-9999.00
2144.00	71.00	2143.77	16.45	1.06	239.80	95.74	-9999.00
2145.00	67.00	2144.77	16.46	1.06	239.80	94.68	-9999.00
2146.00	64.00	2145.77	16.46	1.06	239.80	81.15	-9999.00
2147.00	62.00	2146.77	16.46	1.06	239.80	71.61	-9999.00
2148.00	61.00	2147.77	16.47	1.06	239.80	73.63	-9999.00
2149.00	70.00	2148.77	16.47	1.06	239.80	77.25	-9999.00
2150.00	67.00	2149.77	16.47	1.06	239.80	95.92	-9999.00
2151.00	65.00	2150.77	16.48	1.06	239.80	85.22	-9999.00
2152.00	65.00	2151.77	16.48	1.06	239.80	80.04	-9999.00
2153.00	60.00	2152.77	16.49	1.06	239.80	56.37	-9999.00
2154.00	58.00	2153.77	16.49	1.06	239.80	67.37	-9999.00
2155.00	57.00	2154.77	16.49	1.06	239.80	64.02	-9999.00
2156.00	54.00	2155.77	16.50	1.06	239.80	65.14	-9999.00
2157.00	57.00	2156.76	16.50	1.06	239.80	69.32	-9999.00
2158.00	52.00	2157.76	16.50	1.06	239.80	80.20	-9999.00
2159.00	57.00	2158.76	16.51	1.06	239.80	88.98	-9999.00
2160.00	47.00	2159.76	16.51	1.06	239.80	93.21	-9999.00
2161.00	54.00	2160.76	16.51	1.06	239.80	161.29	-9999.00
2162.00	49.00	2161.76	16.52	1.06	239.80	33.93	-9999.00
2163.00	40.00	2162.76	16.52	1.06	239.80	210.82	-9999.00
2164.00	43.00	2163.76	16.52	1.06	239.80	287.41	-9999.00
2165.00	38.00	2164.76	16.53	1.06	239.80	236.80	-9999.00
2166.00	43.00	2165.76	16.53	1.06	239.80	254.41	-9999.00
2167.00	54.00	2166.76	16.54	1.06	239.80	290.01	-9999.00
2168.00	55.00	2167.76	16.54	1.06	239.80	318.58	-9999.00
2169.00	54.00	2168.76	16.54	1.06	239.80	382.98	-9999.00
2170.00	70.00	2169.76	16.55	1.06	239.80	155.20	-9999.00
2171.00	74.00	2170.76	16.55	1.06	239.80	125.60	-9999.00
2172.00	70.00	2171.76	16.55	1.06	239.80	203.72	-9999.00
2173.00	61.00	2172.76	16.56	1.06	239.80	123.46	-9999.00
2174.00	79.00	2173.76	16.56	1.06	239.80	106.14	-9999.00
2175.00	76.00	2174.76	16.56	1.06	239.80	118.81	-9999.00
2176.00	72.00	2175.76	16.57	1.06	239.80	103.36	-9999.00
2177.00	77.00	2176.76	16.57	1.06	232.80	112.21	-9999.00
2178.00	72.00	2177.76	16.58	1.06	232.80	97.67	-9999.00
2179.00	82.00	2178.76	16.58	1.06	232.80	82.45	-9999.00
2180.00	77.00	2179.76	16.59	1.06	232.80	86.36	-9999.00
2181.00	70.00	2180.76	16.60	1.06	232.80	71.10	-9999.00
2182.00	70.00	2181.76	16.60	1.06	232.80	73.72	-9999.00
2183.00	71.00	2182.76	16.61	1.06	232.80	77.08	-9999.00
2184.00	71.00	2183.76	16.61	1.06	232.80	82.86	-9999.00
2185.00	71.00	2184.76	16.62	1.06	232.80	97.61	-9999.00
2186.00	71.00	2185.76	16.62	1.06	232.80	79.35	-9999.00
2187.00	69.00	2186.76	16.63	1.06	232.80	92.85	-9999.00
2188.00	70.00	2187.76	16.64	1.06	232.80	100.72	-9999.00
2189.00	70.00	2188.76	16.64	1.06	232.80	106.80	-9999.00
2190.00	65.00	2189.76	16.65	1.06	232.80	86.01	-9999.00
2191.00	72.00	2190.76	16.65	1.06	232.80	86.15	-9999.00
2192.00	64.00	2191.76	16.66	1.06	232.80	80.87	-9999.00
2193.00	75.00	2192.76	16.67	1.06	232.80	85.40	-9999.00
2194.00	69.00	2193.76	16.67	1.06	232.80	85.38	-9999.00
2195.00	76.00	2194.76	16.68	1.06	232.80	102.92	-9999.00
2196.00	81.00	2195.76	16.68	1.06	232.80	112.38	-9999.00
2197.00	77.00	2196.76	16.69	1.06	232.80	111.43	-9999.00
2198.00	84.00	2197.76	16.70	1.06	232.80	103.58	-9999.00
2199.00	80.00	2198.76	16.70	1.06	232.80	87.18	-9999.00
2200.00	81.00	2199.76	16.71	1.06	232.80	124.19	-9999.00
2201.00	71.00	2200.76	16.71	1.06	232.80	142.07	-9999.00
2202.00	69.00	2201.76	16.72	1.06	232.80	144.63	-9999.00
2203.00	68.00	2202.76	16.73	1.06	232.80	149.68	-9999.00
2204.00	71.00	2203.76	16.73	1.06	232.80	152.87	-9999.00
2205.00	70.00	2204.75	16.74	1.06	232.80	142.99	-9999.00
2206.00	64.00	2205.75	16.74	1.06	232.80	99.62	-9999.00
2207.00	66.00	2206.75	16.75	1.06	232.80	108.94	-9999.00
2208.00	72.00	2207.75	16.76	1.06	232.80	96.97	-9999.00
2209.00	70.00	2208.75	16.76	1.06	232.80	96.86	-9999.00
2210.00	72.00	2209.75	16.77	1.06	232.80	108.55	-9999.00
2211.00	67.00	2210.75	16.77	1.06	232.80	114.65	-9999.00
2212.00	69.00	2211.75	16.78	1.06	232.80	122.04	-9999.00
2213.00	73.00	2212.75	16.79	1.06	232.80	99.17	-9999.00
2214.00	74.00	2213.75	16.79	1.06	232.80	96.20	-9999.00
2215.00	70.00	2214.75	16.80	1.06	232.80	102.91	-9999.00
2216.00	71.00	2215.75	16.80	1.06	232.80	107.84	-9999.00
2217.00	72.00	2216.75	16.81	1.06	232.80	90.03	-9999.00
2218.00	71.00	2217.75	16.82	1.06	232.80	89.18	-9999.00
2219.00	64.00	2218.75	16.82	1.06	232.80	97.90	-9999.00
2220.00	68.00	2219.75	16.83	1.06	232.80	107.85	-9999.00
2221.00	68.00	2220.75	16.83	1.06	232.80	54.67	-9999.00
2222.00	77.00	2221.75	16.84	1.06	232.80	101.93	-9999.00
2223.00	81.00	2222.75	16.85	1.06	232.80	97.78	-9999.00
2224.00	73.00	2223.75	16.85	1.06	232.80	32.87	-9999.00
2225.00	70.00	2224.75	16.86	1.06	232.80	108.11	-9999.00
2226.00	65.00	2225.75	16.86	1.06	232.80	100.50	-9999.00
2227.00	65.00	2226.75	16.87	1.06	232.80	95.10	-9999.00
2228.00	69.00	2227.75	16.88	1.06	232.80	93.55	-9999.00
2229.00	65.00	2228.75	16.88	1.06	232.80	98.33	-9999.00
2230.00	65.00	2229.75	16.89	1.06	232.80	100.96	-9999.00
2231.00	71.00	2230.75	16.89	1.06	232.80	96.44	-9999.00
2232.00	65.00	2231.75	16.90	1.06	232.80	99.28	-9999.00
2233.00	66.00	2232.75	16.91	1.06	232.80	99.35	-9999.00
2234.00	67.00	2233.75	16.91	1.06	232.80	104.14	-9999.00
2235.00	70.00	2234.75	16.92	1.06	232.80	97.17	-9999.00
2236.00	75.00	2235.75	16.92	1.06	232.80	97.19	-9999.00
2237.00	75.00	2236.75	16.93	1.06	232.80	102.98	-9999.00
2238.00	73.00	2237.75	16.94	1.06	232.80	105.77	-9999.00
2239.00	73.00	2238.75	16.94	1.06	232.80	80.82	-9999.00
2240.00	65.00	2239.75	16.95	1.41	230.30	79.44	-9999.00
2241.00	71.00	2240.75	16.95	1.41	230.30	86.22	-9999.00
2242.00	68.00	2241.75	16.96	1.41	230.30	92.43	-9999.00
2243.00	73.00	2242.75	16.97	1.41	230.30	81.31	-9999.00
2244.00	67.00	2243.75	16.97	1.41	230.30	79.84	-9999.00
2245.00	66.00	2244.75	16.98	1.41	230.30	106.65	-9999.00
2246.00	66.00	2245.75	16.99	1.41	230.30	113.06	-9999.00
2247.00	66.00	2246.75	16.99	1.41	230.30	76.62	-9999.00
2248.00	65.00	2247.74	17.00	1.41	230.30	99.70	-9999.00
