~Version Information
VERS.     2.0  :CWLS LOG ASCII STANDARD - VERSION 2.0
WRAP.      NO  :ONE LINE PER DEPTH STEP
#MNEM   .UNIT                      DATA   INFORMATION
#----------------------------------------------------
~Well Information Block
 STRT   .F                      1650.00   :Start Depth
 STOP   .F                      5754.00   :Stop Depth
 STEP   .F                         1.00   :Step Value
 NULL   .                       -9999.0   :Null Value
 COMP   .              White Oak Energy   :COMPANY
 WELL   .             HC Cockburn #196H   :WELL
  FLD   .                                 :FIELD
  LOC   .                       Wharton   :LOCATION
 CNTY   .                       Wharton   :COUNTY
 STAT   .                         Texas   :STATE
 CTRY   .                           USA   :COUNTRY
 SRVC   . Supreme Source Energy Services Inc.   :SERVICE COMPANY
 DATE   .                    01/08/2018   :LOG DATE
  API   .                  42-481-35422   :API NUMBER
ELEVKB   .F                         18.8   :Elevation KB
ELEVDF   .F                           71   :Elevation DF
ELEVGL   .F                         89.8   :Elevation GL
# MNEM   .UNIT    DATA   INFORMATION
#----------------------------------------
~Curve Information
   DEP   .F             :Depth
  gama   .API           :Gamma
   tvd   .ft            :TVD
    vs   .ft            :VS
   Inc   .0             :Inclination
   Azm   .0             :Azimuth
   ROP   .0             :ROP
   gas   .Pct           :Gas Avg
#   DEP      gama       tvd        vs       Inc       Azm       ROP       gas
#------------------------------------------------------------------------------
~ASCII LOG DATA SECTION
# ...
4950.00	39.00	4765.90	678.63	27.50	196.20	185.32	-9999.00
4951.00	41.00	4766.78	678.99	27.50	196.20	191.28	-9999.00
4952.00	42.00	4767.67	679.36	27.50	196.20	203.16	-9999.00
4953.00	40.00	4768.56	679.72	27.50	196.20	233.49	-9999.00
4954.00	29.00	4769.44	680.08	27.50	196.20	234.19	-9999.00
4955.00	42.00	4770.33	680.44	27.50	196.20	235.94	-9999.00
4956.00	41.00	4771.22	680.80	27.50	196.20	226.54	-9999.00
4957.00	43.00	4772.10	681.17	27.50	196.20	230.47	-9999.00
4958.00	41.00	4772.99	681.53	27.50	196.20	234.74	-9999.00
4959.00	42.00	4773.88	681.89	27.50	196.20	195.56	-9999.00
4960.00	31.00	4774.77	682.25	27.50	196.20	206.26	-9999.00
4961.00	43.00	4775.65	682.61	27.50	196.20	237.43	-9999.00
4962.00	36.00	4776.54	682.97	27.50	196.20	214.99	-9999.00
4963.00	34.00	4777.43	683.34	27.50	196.20	215.45	-9999.00
4964.00	42.00	4778.31	683.70	27.50	196.20	235.95	-9999.00
4965.00	27.00	4779.20	684.06	27.50	196.20	226.73	-9999.00
4966.00	25.00	4780.09	684.42	27.50	196.20	216.06	-9999.00
4967.00	45.00	4780.97	684.78	27.50	196.20	212.93	-9999.00
4968.00	29.00	4781.86	685.15	27.50	196.20	218.06	-9999.00
4969.00	27.00	4782.75	685.51	27.50	196.20	217.04	-9999.00
4970.00	28.00	4783.64	685.87	27.50	196.20	217.02	-9999.00
4971.00	29.00	4784.52	686.23	27.50	196.20	216.93	-9999.00
4972.00	30.00	4785.41	686.59	27.50	196.20	216.96	-9999.00
4973.00	31.00	4786.30	686.95	27.50	196.20	216.70	-9999.00
4974.00	32.00	4787.18	687.32	27.50	196.20	217.27	-9999.00
4975.00	32.00	4788.07	687.68	27.50	196.20	217.96	-9999.00
4976.00	48.00	4788.96	688.04	27.50	196.20	213.58	-9999.00
4977.00	25.00	4789.85	688.40	27.50	196.20	213.52	-9999.00
4978.00	61.00	4790.73	688.76	27.50	196.20	208.47	-9999.00
4979.00	65.00	4791.62	689.13	27.50	196.20	195.34	-9999.00
4980.00	26.00	4792.51	689.49	27.50	196.20	208.02	-9999.00
4981.00	33.00	4793.39	689.85	27.50	196.20	217.20	-9999.00
4982.00	30.00	4794.28	690.21	27.50	196.20	216.94	-9999.00
4983.00	28.00	4795.17	690.57	27.50	196.20	217.46	-9999.00
4984.00	45.00	4796.05	690.93	27.50	196.20	215.61	-9999.00
4985.00	50.00	4796.94	691.30	27.50	196.20	30.95	-9999.00
4986.00	52.00	4797.83	691.66	27.50	196.20	146.47	-9999.00
4987.00	58.00	4798.72	692.02	27.50	196.20	193.82	-9999.00
4988.00	52.00	4799.60	692.38	27.50	196.20	196.78	-9999.00
4989.00	60.00	4800.49	692.74	27.50	196.20	57.94	-9999.00
4990.00	54.00	4801.38	693.11	27.50	196.20	192.83	-9999.00
4991.00	57.00	4802.26	693.47	27.50	196.20	299.61	-9999.00
4992.00	54.00	4803.15	693.83	27.50	196.20	268.93	-9999.00
4993.00	54.00	4804.04	694.19	27.50	196.20	228.67	-9999.00
4994.00	54.00	4804.92	694.55	27.50	196.20	224.98	-9999.00
4995.00	62.00	4805.81	694.91	27.50	196.20	0.89	-9999.00
4996.00	51.00	4806.70	695.28	27.50	196.20	251.43	-9999.00
4997.00	64.00	4807.59	695.64	27.50	196.20	245.96	-9999.00
4998.00	52.00	4808.47	696.00	27.50	196.20	99.37	-9999.00
4999.00	59.00	4809.36	696.36	27.50	196.20	119.04	-9999.00
5000.00	72.00	4810.25	696.72	27.50	196.20	255.85	-9999.00
5001.00	67.00	4811.13	697.09	27.50	196.20	161.42	-9999.00
5002.00	52.00	4812.02	697.45	27.50	196.20	11.08	-9999.00
5003.00	54.00	4812.91	697.81	27.50	196.20	141.61	-9999.00
5004.00	54.00	4813.79	698.17	27.50	196.20	236.74	-9999.00
5005.00	56.00	4814.68	698.53	27.50	196.20	230.40	-9999.00
5006.00	57.00	4815.57	698.89	27.50	195.50	234.44	-9999.00
5007.00	58.00	4816.46	699.26	27.50	195.50	233.64	-9999.00
5008.00	49.00	4817.35	699.62	27.50	195.50	230.65	-9999.00
5009.00	54.00	4818.23	699.98	27.50	195.50	250.48	-9999.00
5010.00	58.00	4819.12	700.35	27.50	195.50	224.24	-9999.00
5011.00	61.00	4820.01	700.71	27.50	195.50	132.84	-9999.00
5012.00	63.00	4820.90	701.07	27.50	195.50	237.71	-9999.00
5013.00	64.00	4821.79	701.43	27.50	195.50	237.11	-9999.00
5014.00	71.00	4822.68	701.80	27.50	195.50	235.07	-9999.00
5015.00	79.00	4823.57	702.16	27.50	195.50	235.95	-9999.00
5016.00	65.00	4824.45	702.52	27.50	195.50	233.51	-9999.00
5017.00	72.00	4825.34	702.89	27.50	195.50	225.08	-9999.00
5018.00	76.00	4826.23	703.25	27.50	195.50	236.74	-9999.00
5019.00	70.00	4827.12	703.61	27.50	195.50	236.34	-9999.00
5020.00	68.00	4828.01	703.97	27.50	195.50	227.23	-9999.00
5021.00	73.00	4828.90	704.34	27.50	195.50	207.52	-9999.00
5022.00	70.00	4829.79	704.70	27.50	195.50	224.73	-9999.00
5023.00	72.00	4830.67	705.06	27.50	195.50	227.75	-9999.00
5024.00	66.00	4831.56	705.43	27.50	195.50	213.44	-9999.00
5025.00	55.00	4832.45	705.79	27.50	195.50	216.37	-9999.00
5026.00	65.00	4833.34	706.15	27.50	195.50	178.79	-9999.00
5027.00	69.00	4834.23	706.51	27.50	195.50	207.59	-9999.00
5028.00	65.00	4835.12	706.88	27.50	195.50	188.29	-9999.00
5029.00	61.00	4836.01	707.24	27.50	195.50	199.05	-9999.00
5030.00	61.00	4836.90	707.60	27.50	195.50	215.29	-9999.00
5031.00	60.00	4837.78	707.97	27.50	195.50	178.92	-9999.00
5032.00	67.00	4838.67	708.33	27.50	195.50	212.96	-9999.00
5033.00	62.00	4839.56	708.69	27.50	195.50	204.32	-9999.00
5034.00	60.00	4840.45	709.05	27.50	195.50	194.92	-9999.00
5035.00	65.00	4841.34	709.42	27.50	195.50	201.90	-9999.00
5036.00	64.00	4842.23	709.78	27.50	195.50	196.69	-9999.00
5037.00	63.00	4843.12	710.14	27.50	195.50	213.43	-9999.00
5038.00	63.00	4844.00	710.50	27.50	195.50	210.32	-9999.00
5039.00	69.00	4844.89	710.87	27.50	195.50	215.74	-9999.00
5040.00	70.00	4845.78	711.23	27.50	195.50	210.41	-9999.00
5041.00	65.00	4846.67	711.59	27.50	195.50	212.54	-9999.00
5042.00	59.00	4847.56	711.96	27.50	195.50	193.69	-9999.00
5043.00	70.00	4848.45	712.32	27.50	195.50	196.23	-9999.00
5044.00	70.00	4849.34	712.68	27.50	195.50	214.58	-9999.00
5045.00	70.00	4850.22	713.04	27.50	195.50	216.04	-9999.00
5046.00	65.00	4851.11	713.41	27.50	195.50	150.29	-9999.00
5047.00	62.00	4852.00	713.77	27.50	195.50	217.20	-9999.00
5048.00	61.00	4852.89	714.13	27.50	195.50	153.27	-9999.00
5049.00	57.00	4853.78	714.50	27.50	195.50	212.07	-9999.00
5050.00	55.00	4854.67	714.86	27.50	195.50	197.41	-9999.00
5051.00	60.00	4855.56	715.22	27.50	195.50	138.17	-9999.00
5052.00	65.00	4856.44	715.58	27.50	195.50	162.61	-9999.00
5053.00	65.00	4857.33	715.95	27.50	195.50	218.72	-9999.00
5054.00	69.00	4858.22	716.31	27.50	195.50	140.03	-9999.00
5055.00	57.00	4859.11	716.67	27.50	195.50	204.79	-9999.00
5056.00	55.00	4860.00	717.04	27.50	195.50	98.14	-9999.00
5057.00	52.00	4860.89	717.40	27.50	195.50	98.81	-9999.00
5058.00	52.00	4861.78	717.76	27.50	195.50	114.02	-9999.00
5059.00	62.00	4862.67	718.12	27.50	195.50	137.38	-9999.00
5060.00	67.00	4863.55	718.49	27.50	195.50	155.55	-9999.00
5061.00	71.00	4864.44	718.85	27.50	195.50	135.03	-9999.00
5062.00	74.00	4865.33	719.21	27.50	195.50	152.10	-9999.00
5063.00	74.00	4866.22	719.58	27.50	195.50	147.41	-9999.00
5064.00	75.00	4867.11	719.94	27.50	195.50	175.53	-9999.00
5065.00	76.00	4868.00	720.30	27.50	195.50	215.51	-9999.00
5066.00	76.00	4868.89	720.66	27.50	195.50	224.93	-9999.00
5067.00	81.00	4869.77	721.03	27.50	195.50	237.41	-9999.00
5068.00	81.00	4870.66	721.39	27.50	195.50	221.62	-9999.00
5069.00	78.00	4871.55	721.75	27.10	194.80	226.16	-9999.00
5070.00	76.00	4872.44	722.11	27.10	194.80	145.51	-9999.00
5071.00	75.00	4873.34	722.46	27.10	194.80	207.98	-9999.00
5072.00	70.00	4874.23	722.82	27.10	194.80	150.13	-9999.00
5073.00	77.00	4875.12	723.18	27.10	194.80	174.36	-9999.00
5074.00	76.00	4876.02	723.53	27.10	194.80	199.04	-9999.00
5075.00	75.00	4876.91	723.89	27.10	194.80	224.54	-9999.00
5076.00	75.00	4877.80	724.25	27.10	194.80	201.60	-9999.00
5077.00	79.00	4878.69	724.60	27.10	194.80	224.51	-9999.00
5078.00	69.00	4879.59	724.96	27.10	194.80	154.51	-9999.00
5079.00	77.00	4880.48	725.31	27.10	194.80	176.14	-9999.00
5080.00	77.00	4881.37	725.67	27.10	194.80	217.85	-9999.00
5081.00	76.00	4882.27	726.03	27.10	194.80	18.97	-9999.00
5082.00	76.00	4883.16	726.38	27.10	194.80	208.13	-9999.00
5083.00	77.00	4884.05	726.74	27.10	194.80	232.72	-9999.00
5084.00	77.00	4884.95	727.09	27.10	194.80	172.53	-9999.00
5085.00	77.00	4885.84	727.45	27.10	194.80	196.55	-9999.00
5086.00	79.00	4886.73	727.81	27.10	194.80	41.80	-9999.00
5087.00	84.00	4887.62	728.16	27.10	194.80	138.44	-9999.00
5088.00	79.00	4888.52	728.52	27.10	194.80	99.44	-9999.00
