~Version Information
VERS.     2.0  :CWLS LOG ASCII STANDARD - VERSION 2.0
WRAP.      NO  :ONE LINE PER DEPTH STEP
#MNEM   .UNIT                      DATA   INFORMATION
#----------------------------------------------------
~Well Information Block
 STRT   .F                      1650.00   :Start Depth
 STOP   .F                      5754.00   :Stop Depth
 STEP   .F                         1.00   :Step Value
 NULL   .                       -9999.0   :Null Value
 COMP   .              White Oak Energy   :COMPANY
 WELL   .             HC Cockburn #196H   :WELL
  FLD   .                                 :FIELD
  LOC   .                       Wharton   :LOCATION
 CNTY   .                       Wharton   :COUNTY
 STAT   .                         Texas   :STATE
 CTRY   .                           USA   :COUNTRY
 SRVC   . Supreme Source Energy Services Inc.   :SERVICE COMPANY
 DATE   .                    01/08/2018   :LOG DATE
  API   .                  42-481-35422   :API NUMBER
ELEVKB   .F                         18.8   :Elevation KB
ELEVDF   .F                           71   :Elevation DF
ELEVGL   .F                         89.8   :Elevation GL
# MNEM   .UNIT    DATA   INFORMATION
#----------------------------------------
~Curve Information
   DEP   .F             :Depth
  gama   .API           :Gamma
   tvd   .ft            :TVD
    vs   .ft            :VS
   Inc   .0             :Inclination
   Azm   .0             :Azimuth
   ROP   .0             :ROP
   gas   .Pct           :Gas Avg
#   DEP      gama       tvd        vs       Inc       Azm       ROP       gas
#------------------------------------------------------------------------------
~ASCII LOG DATA SECTION
1675.00	28.00	1674.83	16.70	0.70	235.60	-9999.00	-9999.00
1676.00	24.00	1675.83	16.70	0.70	235.60	-9999.00	-9999.00
1677.00	24.00	1676.83	16.71	0.70	235.60	-9999.00	-9999.00
1678.00	46.00	1677.83	16.71	0.70	235.60	-9999.00	-9999.00
1679.00	50.00	1678.83	16.71	0.70	235.60	-9999.00	-9999.00
1680.00	52.00	1679.83	16.72	0.70	235.60	-9999.00	-9999.00
1681.00	55.00	1680.83	16.72	0.70	235.60	-9999.00	-9999.00
1682.00	56.00	1681.83	16.73	0.70	235.60	-9999.00	-9999.00
1683.00	56.00	1682.83	16.73	0.70	235.60	-9999.00	-9999.00
1684.00	46.00	1683.83	16.73	0.70	235.60	153.75	-9999.00
1685.00	35.00	1684.83	16.74	0.70	235.60	181.37	-9999.00
1686.00	28.00	1685.83	16.74	0.70	235.60	215.08	-9999.00
1687.00	32.00	1686.83	16.74	0.70	235.60	287.11	-9999.00
1688.00	34.00	1687.83	16.75	0.70	235.60	340.11	-9999.00
1689.00	35.00	1688.83	16.75	0.70	235.60	271.56	-9999.00
1690.00	32.00	1689.83	16.76	0.70	235.60	190.86	-9999.00
1691.00	32.00	1690.83	16.76	0.70	235.60	312.57	-9999.00
1692.00	39.00	1691.83	16.76	0.70	235.60	330.09	-9999.00
1693.00	43.00	1692.83	16.77	0.70	235.60	304.36	-9999.00
1694.00	46.00	1693.83	16.77	0.70	235.60	260.08	-9999.00
1695.00	52.00	1694.83	16.77	0.70	235.60	281.16	-9999.00
1696.00	52.00	1695.83	16.78	0.70	235.60	340.91	-9999.00
1697.00	52.00	1696.83	16.78	0.70	235.60	215.93	-9999.00
1698.00	49.00	1697.83	16.78	0.70	235.60	171.68	-9999.00
1699.00	47.00	1698.83	16.79	0.70	235.60	206.27	-9999.00
1700.00	46.00	1699.83	16.79	0.70	235.60	282.95	-9999.00
1701.00	31.00	1700.83	16.80	0.70	235.60	368.48	-9999.00
1702.00	28.00	1701.83	16.80	0.70	235.60	311.59	-9999.00
1703.00	32.00	1702.83	16.80	0.70	235.60	242.83	-9999.00
1704.00	28.00	1703.83	16.81	0.70	235.60	250.97	-9999.00
1705.00	28.00	1704.83	16.81	0.70	235.60	250.49	-9999.00
1706.00	28.00	1705.83	16.81	0.70	235.60	250.55	-9999.00
1707.00	42.00	1706.83	16.82	0.70	235.60	250.45	-9999.00
1708.00	42.00	1707.83	16.82	0.70	235.60	251.27	-9999.00
1709.00	42.00	1708.83	16.83	0.70	235.60	215.82	-9999.00
1710.00	49.00	1709.83	16.83	0.70	235.60	150.40	-9999.00
1711.00	46.00	1710.83	16.83	0.70	235.60	160.29	-9999.00
1712.00	42.00	1711.83	16.84	0.70	235.60	170.53	-9999.00
1713.00	49.00	1712.83	16.84	0.70	235.60	170.45	-9999.00
1714.00	52.00	1713.83	16.84	0.70	235.60	145.68	-9999.00
1715.00	52.00	1714.83	16.85	0.70	235.60	105.64	-9999.00
1716.00	52.00	1715.83	16.85	0.70	235.60	132.86	-9999.00
1717.00	52.00	1716.83	16.85	0.70	235.60	150.44	-9999.00
1718.00	49.00	1717.83	16.86	0.70	235.60	140.30	-9999.00
1719.00	49.00	1718.83	16.86	0.70	235.60	149.27	-9999.00
1720.00	49.00	1719.83	16.87	0.70	235.60	148.63	-9999.00
1721.00	49.00	1720.83	16.87	0.70	235.60	94.74	-9999.00
1722.00	46.00	1721.83	16.87	0.70	235.60	153.09	-9999.00
1723.00	46.00	1722.83	16.88	0.70	235.60	70.53	-9999.00
1724.00	44.00	1723.83	16.88	0.70	235.60	123.64	-9999.00
1725.00	43.00	1724.83	16.88	0.70	235.60	142.56	-9999.00
1726.00	42.00	1725.83	16.89	0.70	235.60	132.06	-9999.00
1727.00	46.00	1726.83	16.89	0.70	235.60	123.19	-9999.00
1728.00	46.00	1727.83	16.90	0.70	235.60	147.75	-9999.00
1729.00	46.00	1728.83	16.90	0.70	235.60	155.83	-9999.00
1730.00	42.00	1729.83	16.90	0.70	235.60	177.03	-9999.00
1731.00	39.00	1730.83	16.91	0.70	235.60	210.60	-9999.00
1732.00	38.00	1731.83	16.91	0.70	235.60	251.65	-9999.00
1733.00	35.00	1732.83	16.91	0.70	235.60	384.86	-9999.00
1734.00	32.00	1733.83	16.92	0.70	235.60	359.32	-9999.00
1735.00	30.00	1734.83	16.92	0.70	235.60	335.91	-9999.00
1736.00	29.00	1735.83	16.92	0.70	235.60	364.72	-9999.00
1737.00	28.00	1736.83	16.93	0.70	235.60	363.53	-9999.00
1738.00	28.00	1737.83	16.93	0.70	224.00	350.80	-9999.00
1739.00	28.00	1738.83	16.93	0.70	224.00	347.68	-9999.00
1740.00	32.00	1739.83	16.94	0.70	224.00	341.85	-9999.00
1741.00	34.00	1740.83	16.94	0.70	224.00	346.92	-9999.00
1742.00	35.00	1741.83	16.94	0.70	224.00	348.39	-9999.00
1743.00	32.00	1742.83	16.94	0.70	224.00	347.19	-9999.00
1744.00	32.00	1743.83	16.94	0.70	224.00	348.21	-9999.00
1745.00	49.00	1744.83	16.94	0.70	224.00	348.84	-9999.00
1746.00	63.00	1745.83	16.95	0.70	224.00	190.04	-9999.00
1747.00	60.00	1746.83	16.95	0.70	224.00	146.25	-9999.00
1748.00	52.00	1747.83	16.95	0.70	224.00	133.99	-9999.00
1749.00	56.00	1748.83	16.95	0.70	224.00	134.71	-9999.00
1750.00	49.00	1749.83	16.95	0.70	224.00	120.17	-9999.00
1751.00	52.00	1750.83	16.95	0.70	224.00	111.46	-9999.00
1752.00	52.00	1751.83	16.96	0.70	224.00	129.68	-9999.00
1753.00	52.00	1752.83	16.96	0.70	224.00	145.47	-9999.00
1754.00	52.00	1753.83	16.96	0.70	224.00	146.51	-9999.00
1755.00	52.00	1754.83	16.96	0.70	224.00	119.27	-9999.00
1756.00	49.00	1755.83	16.96	0.70	224.00	113.09	-9999.00
1757.00	49.00	1756.83	16.96	0.70	224.00	116.40	-9999.00
1758.00	38.00	1757.83	16.97	0.70	224.00	138.02	-9999.00
1759.00	38.00	1758.83	16.97	0.70	224.00	242.79	-9999.00
1760.00	38.00	1759.83	16.97	0.70	224.00	258.62	-9999.00
1761.00	38.00	1760.83	16.97	0.70	224.00	282.75	-9999.00
1762.00	35.00	1761.83	16.97	0.70	224.00	321.11	-9999.00
1763.00	42.00	1762.83	16.97	0.70	224.00	296.35	-9999.00
1764.00	46.00	1763.83	16.98	0.70	224.00	310.50	-9999.00
1765.00	52.00	1764.83	16.98	0.70	224.00	293.69	-9999.00
1766.00	43.00	1765.83	16.98	0.70	224.00	266.90	-9999.00
1767.00	42.00	1766.83	16.98	0.70	224.00	234.71	-9999.00
1768.00	38.00	1767.83	16.98	0.70	224.00	254.96	-9999.00
1769.00	35.00	1768.83	16.98	0.70	224.00	286.93	-9999.00
1770.00	28.00	1769.83	16.99	0.70	224.00	309.89	-9999.00
1771.00	35.00	1770.83	16.99	0.70	224.00	309.25	-9999.00
1772.00	33.00	1771.83	16.99	0.70	224.00	309.94	-9999.00
1773.00	32.00	1772.83	16.99	0.70	224.00	312.91	-9999.00
1774.00	28.00	1773.83	16.99	0.70	224.00	312.46	-9999.00
1775.00	28.00	1774.83	16.99	0.70	224.00	312.68	-9999.00
1776.00	28.00	1775.83	17.00	0.70	224.00	313.02	-9999.00
1777.00	30.00	1776.83	17.00	0.70	224.00	312.82	-9999.00
1778.00	31.00	1777.83	17.00	0.70	224.00	311.95	-9999.00
1779.00	32.00	1778.83	17.00	0.70	224.00	313.09	-9999.00
1780.00	52.00	1779.83	17.00	0.70	224.00	311.24	-9999.00
1781.00	52.00	1780.83	17.00	0.70	224.00	136.72	-9999.00
1782.00	66.00	1781.83	17.01	0.70	224.00	31.52	-9999.00
1783.00	69.00	1782.83	17.01	0.70	224.00	162.65	-9999.00
1784.00	70.00	1783.83	17.01	0.70	224.00	123.60	-9999.00
1785.00	70.00	1784.83	17.01	0.70	224.00	133.13	-9999.00
1786.00	63.00	1785.83	17.01	0.70	224.00	177.06	-9999.00
1787.00	60.00	1786.83	17.01	0.70	224.00	255.03	-9999.00
1788.00	63.00	1787.83	17.02	0.70	224.00	229.80	-9999.00
1789.00	63.00	1788.83	17.02	0.70	224.00	205.76	-9999.00
1790.00	63.00	1789.83	17.02	0.70	224.00	195.37	-9999.00
1791.00	60.00	1790.83	17.02	0.70	224.00	184.62	-9999.00
1792.00	66.00	1791.83	17.02	0.70	224.00	156.53	-9999.00
1793.00	70.00	1792.82	17.02	0.70	224.00	144.30	-9999.00
1794.00	64.00	1793.82	17.03	0.70	224.00	137.39	-9999.00
1795.00	63.00	1794.82	17.03	0.70	224.00	159.64	-9999.00
1796.00	63.00	1795.82	17.03	0.70	224.00	170.28	-9999.00
1797.00	60.00	1796.82	17.03	0.70	224.00	185.86	-9999.00
1798.00	66.00	1797.82	17.03	0.70	224.00	203.09	-9999.00
1799.00	52.00	1798.82	17.03	0.70	224.00	211.12	-9999.00
1800.00	63.00	1799.82	17.04	0.70	254.60	240.03	-9999.00
1801.00	70.00	1800.82	17.03	0.70	254.60	238.77	-9999.00
1802.00	72.00	1801.82	17.03	0.70	254.60	243.33	-9999.00
1803.00	73.00	1802.82	17.03	0.70	254.60	188.11	-9999.00
1804.00	74.00	1803.82	17.02	0.70	254.60	204.89	-9999.00
1805.00	68.00	1804.82	17.02	0.70	254.60	211.72	-9999.00
1806.00	52.00	1805.82	17.02	0.70	254.60	136.94	-9999.00
1807.00	46.00	1806.82	17.02	0.70	254.60	180.71	-9999.00
1808.00	46.00	1807.82	17.01	0.70	254.60	229.43	-9999.00
1809.00	38.00	1808.82	17.01	0.70	254.60	290.39	-9999.00
1810.00	42.00	1809.82	17.01	0.70	254.60	337.57	-9999.00
1811.00	42.00	1810.82	17.01	0.70	254.60	335.34	-9999.00
1812.00	42.00	1811.82	17.00	0.70	254.60	304.08	-9999.00
1813.00	52.00	1812.82	17.00	0.70	254.60	257.56	-9999.00
1814.00	52.00	1813.82	17.00	0.70	254.60	212.55	-9999.00
1815.00	52.00	1814.82	17.00	0.70	254.60	211.12	-9999.00
1816.00	52.00	1815.82	16.99	0.70	254.60	236.21	-9999.00
1817.00	42.00	1816.82	16.99	0.70	254.60	235.11	-9999.00
