~Version Information
VERS.     2.0  :CWLS LOG ASCII STANDARD - VERSION 2.0
WRAP.      NO  :ONE LINE PER DEPTH STEP
#MNEM   .UNIT                      DATA   INFORMATION
#----------------------------------------------------
~Well Information Block
 STRT   .F                      1650.00   :Start Depth
 STOP   .F                      5754.00   :Stop Depth
 STEP   .F                         1.00   :Step Value
 NULL   .                       -9999.0   :Null Value
 COMP   .              White Oak Energy   :COMPANY
 WELL   .             HC Cockburn #196H   :WELL
  FLD   .                                 :FIELD
  LOC   .                       Wharton   :LOCATION
 CNTY   .                       Wharton   :COUNTY
 STAT   .                         Texas   :STATE
 CTRY   .                           USA   :COUNTRY
 SRVC   . Supreme Source Energy Services Inc.   :SERVICE COMPANY
 DATE   .                    01/08/2018   :LOG DATE
  API   .                  42-481-35422   :API NUMBER
ELEVKB   .F                         18.8   :Elevation KB
ELEVDF   .F                           71   :Elevation DF
ELEVGL   .F                         89.8   :Elevation GL
# MNEM   .UNIT    DATA   INFORMATION
#----------------------------------------
~Curve Information
   DEP   .F             :Depth
  gama   .API           :Gamma
   tvd   .ft            :TVD
    vs   .ft            :VS
   Inc   .0             :Inclination
   Azm   .0             :Azimuth
   ROP   .0             :ROP
   gas   .Pct           :Gas Avg
#   DEP      gama       tvd        vs       Inc       Azm       ROP       gas
#------------------------------------------------------------------------------
~ASCII LOG DATA SECTION
# ...
4509.00	73.00	4375.08	518.51	26.40	193.80	72.25	0.30
4510.00	70.00	4375.97	518.87	26.40	193.80	85.64	0.30
4511.00	68.00	4376.86	519.23	26.40	193.80	29.36	0.30
4512.00	67.00	4377.75	519.60	26.40	193.80	52.13	0.30
4513.00	65.00	4378.64	519.96	26.40	193.80	70.08	0.30
4514.00	64.00	4379.53	520.33	26.40	193.80	79.96	0.30
4515.00	63.00	4380.42	520.69	26.40	193.80	11.11	0.30
4516.00	63.00	4381.31	521.06	26.40	193.80	177.59	0.30
4517.00	86.00	4382.20	521.42	26.40	193.80	181.61	0.30
4518.00	87.00	4383.09	521.79	26.40	193.80	207.87	0.30
4519.00	89.00	4383.98	522.15	26.40	193.80	233.98	0.30
4520.00	91.00	4384.87	522.51	26.40	193.80	227.52	0.30
4521.00	92.00	4385.76	522.88	26.40	193.80	181.84	0.30
4522.00	93.00	4386.65	523.24	26.40	193.80	223.78	0.30
4523.00	94.00	4387.54	523.61	26.40	193.80	193.65	0.30
4524.00	85.00	4388.43	523.97	26.40	193.80	234.08	0.30
4525.00	78.00	4389.32	524.34	26.40	193.80	221.17	0.20
4526.00	70.00	4390.21	524.70	26.40	193.80	217.63	0.30
4527.00	62.00	4391.10	525.07	26.40	193.80	217.94	0.30
4528.00	60.00	4391.99	525.43	26.40	193.80	217.38	0.30
4529.00	57.00	4392.88	525.79	26.40	193.80	217.26	0.30
4530.00	55.00	4393.77	526.16	26.40	193.80	216.63	0.30
4531.00	53.00	4394.66	526.52	26.40	193.80	217.76	0.30
4532.00	52.00	4395.55	526.89	26.40	193.80	217.76	0.30
4533.00	53.00	4396.44	527.25	26.40	193.80	217.28	0.30
4534.00	53.00	4397.33	527.62	26.40	193.80	216.99	0.30
4535.00	53.00	4398.22	527.98	26.40	193.80	202.87	0.30
4536.00	54.00	4399.11	528.34	26.40	193.80	216.13	0.30
4537.00	83.00	4400.00	528.71	26.40	193.80	68.99	0.20
4538.00	83.00	4400.89	529.07	26.40	193.80	63.83	0.30
4539.00	83.00	4401.78	529.44	26.40	193.80	59.53	0.30
4540.00	84.00	4402.67	529.80	26.40	193.80	60.41	0.30
4541.00	84.00	4403.56	530.17	26.40	193.80	73.03	0.30
4542.00	84.00	4404.45	530.53	26.40	193.80	79.02	0.30
4543.00	76.00	4405.34	530.90	26.40	193.80	80.44	0.30
4544.00	78.00	4406.23	531.26	26.40	193.80	58.99	0.30
4545.00	75.00	4407.12	531.62	26.40	193.80	77.78	0.30
4546.00	74.00	4408.01	531.99	26.40	193.80	103.85	0.30
4547.00	83.00	4408.90	532.35	26.40	193.80	102.20	0.30
4548.00	85.00	4409.79	532.72	26.40	193.80	65.13	0.30
4549.00	83.00	4410.68	533.08	26.40	193.80	185.16	0.60
4550.00	83.00	4411.57	533.45	26.40	193.80	47.46	0.80
4551.00	60.00	4412.46	533.81	26.40	193.80	97.29	0.80
4552.00	56.00	4413.35	534.18	26.40	193.80	46.61	0.80
4553.00	47.00	4414.24	534.54	26.40	193.80	132.41	0.80
4554.00	47.00	4415.13	534.90	26.40	193.80	230.81	0.80
4555.00	50.00	4416.02	535.27	26.40	193.80	311.65	0.80
4556.00	54.00	4416.92	535.63	26.40	193.80	357.10	0.70
4557.00	54.00	4417.81	536.00	26.40	193.80	463.57	0.70
4558.00	75.00	4418.70	536.36	26.40	193.80	459.32	0.80
4559.00	68.00	4419.59	536.73	26.40	193.80	14.21	0.50
4560.00	61.00	4420.48	537.09	26.40	193.80	144.02	0.50
4561.00	58.00	4421.37	537.45	26.40	193.80	288.94	0.50
4562.00	48.00	4422.26	537.82	26.40	193.80	337.01	0.40
4563.00	50.00	4423.15	538.18	26.40	193.80	435.98	0.40
4564.00	53.00	4424.04	538.55	26.40	193.80	449.64	0.40
4565.00	55.00	4424.93	538.91	26.40	193.80	410.81	0.40
4566.00	53.00	4425.82	539.28	27.80	194.80	389.64	0.40
4567.00	59.00	4426.70	539.64	27.80	194.80	390.67	0.40
4568.00	57.00	4427.59	540.01	27.80	194.80	395.64	0.40
4569.00	57.00	4428.47	540.38	27.80	194.80	393.16	0.40
4570.00	53.00	4429.36	540.75	27.80	194.80	391.88	0.40
4571.00	51.00	4430.24	541.12	27.80	194.80	387.28	0.40
4572.00	56.00	4431.12	541.48	27.80	194.80	396.13	0.40
4573.00	57.00	4432.01	541.85	27.80	194.80	392.79	0.30
4574.00	55.00	4432.89	542.22	27.80	194.80	389.83	0.40
4575.00	54.00	4433.78	542.59	27.80	194.80	390.68	0.40
4576.00	53.00	4434.66	542.96	27.80	194.80	393.91	0.40
4577.00	54.00	4435.55	543.32	27.80	194.80	406.12	0.40
4578.00	54.00	4436.43	543.69	27.80	194.80	396.38	0.40
4579.00	51.00	4437.32	544.06	27.80	194.80	392.14	0.30
4580.00	51.00	4438.20	544.43	27.80	194.80	388.43	0.30
4581.00	49.00	4439.09	544.80	27.80	194.80	38.99	0.30
4582.00	48.00	4439.97	545.16	27.80	194.80	225.29	0.30
4583.00	47.00	4440.85	545.53	27.80	194.80	222.25	0.30
4584.00	49.00	4441.74	545.90	27.80	194.80	235.76	0.30
4585.00	50.00	4442.62	546.27	27.80	194.80	237.08	0.30
4586.00	54.00	4443.51	546.64	27.80	194.80	236.23	0.30
4587.00	54.00	4444.39	547.00	27.80	194.80	223.66	0.30
4588.00	59.00	4445.28	547.37	27.80	194.80	215.96	0.30
4589.00	62.00	4446.16	547.74	27.80	194.80	216.95	0.30
4590.00	65.00	4447.05	548.11	27.80	194.80	214.29	0.30
4591.00	48.00	4447.93	548.48	27.80	194.80	218.21	0.30
4592.00	48.00	4448.82	548.84	27.80	194.80	217.42	0.30
4593.00	46.00	4449.70	549.21	27.80	194.80	217.44	0.30
4594.00	44.00	4450.59	549.58	27.80	194.80	217.86	0.30
4595.00	42.00	4451.47	549.95	27.80	194.80	217.36	0.30
4596.00	43.00	4452.35	550.32	27.80	194.80	217.05	0.30
4597.00	43.00	4453.24	550.68	27.80	194.80	216.69	0.30
4598.00	45.00	4454.12	551.05	27.80	194.80	216.73	0.30
4599.00	53.00	4455.01	551.42	27.80	194.80	217.24	0.30
4600.00	58.00	4455.89	551.79	27.80	194.80	216.92	0.30
4601.00	59.00	4456.78	552.16	27.80	194.80	215.16	0.30
4602.00	49.00	4457.66	552.52	27.80	194.80	171.86	0.30
4603.00	49.00	4458.55	552.89	27.80	194.80	221.25	0.30
4604.00	51.00	4459.43	553.26	27.80	194.80	218.10	0.30
4605.00	52.00	4460.32	553.63	27.80	194.80	216.93	0.30
4606.00	52.00	4461.20	553.99	27.80	194.80	216.36	0.30
4607.00	43.00	4462.08	554.36	27.80	194.80	210.10	0.30
4608.00	46.00	4462.97	554.73	27.80	194.80	197.50	0.30
4609.00	46.00	4463.85	555.10	27.80	194.80	196.93	0.30
4610.00	46.00	4464.74	555.47	27.80	194.80	186.06	0.30
4611.00	54.00	4465.62	555.83	27.80	194.80	103.23	0.20
4612.00	50.00	4466.51	556.20	27.80	194.80	244.57	0.20
4613.00	48.00	4467.39	556.57	27.80	194.80	317.47	0.20
4614.00	47.00	4468.28	556.94	27.80	194.80	353.90	0.20
4615.00	48.00	4469.16	557.31	27.80	194.80	462.88	0.20
4616.00	48.00	4470.05	557.67	27.80	194.80	461.66	0.20
4617.00	47.00	4470.93	558.04	27.80	194.80	415.86	0.20
4618.00	47.00	4471.82	558.41	27.80	194.80	384.64	0.20
4619.00	42.00	4472.70	558.78	27.80	194.80	400.74	0.20
4620.00	47.00	4473.58	559.15	27.80	194.80	400.91	0.20
4621.00	43.00	4474.47	559.51	27.80	194.80	393.03	0.20
4622.00	47.00	4475.35	559.88	27.80	194.80	392.84	0.20
4623.00	42.00	4476.24	560.25	27.80	194.80	399.62	0.20
4624.00	52.00	4477.12	560.62	27.80	194.80	400.10	0.20
4625.00	54.00	4478.01	560.99	27.80	194.80	400.07	0.20
4626.00	49.00	4478.89	561.35	27.80	194.80	403.73	0.20
4627.00	56.00	4479.78	561.72	27.80	194.80	399.13	0.20
4628.00	63.00	4480.66	562.09	27.80	194.80	389.25	0.20
4629.00	57.00	4481.55	562.46	27.80	195.90	389.93	0.20
4630.00	58.00	4482.43	562.82	27.80	195.90	395.14	0.20
4631.00	52.00	4483.32	563.18	27.80	195.90	396.06	0.20
4632.00	46.00	4484.20	563.55	27.80	195.90	358.93	0.20
4633.00	44.00	4485.09	563.91	27.80	195.90	305.16	0.20
4634.00	39.00	4485.98	564.27	27.80	195.90	297.82	0.20
4635.00	36.00	4486.86	564.64	27.80	195.90	295.97	0.20
4636.00	36.00	4487.75	565.00	27.80	195.90	295.59	0.20
4637.00	32.00	4488.63	565.36	27.80	195.90	295.55	0.30
4638.00	33.00	4489.52	565.73	27.80	195.90	295.36	0.30
4639.00	34.00	4490.40	566.09	27.80	195.90	296.00	0.30
4640.00	34.00	4491.29	566.46	27.80	195.90	296.10	0.30
4641.00	33.00	4492.18	566.82	27.80	195.90	295.15	0.30
4642.00	32.00	4493.06	567.18	27.80	195.90	295.27	0.30
4643.00	35.00	4493.95	567.55	27.80	195.90	295.65	0.30
4644.00	34.00	4494.83	567.91	27.80	195.90	294.85	0.30
4645.00	34.00	4495.72	568.27	27.80	195.90	294.96	0.30
4646.00	34.00	4496.60	568.64	27.80	195.90	295.84	0.30
4647.00	33.00	4497.49	569.00	27.80	195.90	295.26	0.40
4648.00	33.00	4498.38	569.36	27.80	195.90	294.72	0.40
4649.00	31.00	4499.26	569.73	27.80	195.90	291.80	0.40
4650.00	41.00	4500.15	570.09	27.80	195.90	273.23	0.40
4651.00	43.00	4501.03	570.45	27.80	195.90	271.73	0.40
4652.00	43.00	4501.92	570.82	27.80	195.90	267.74	0.50
4653.00	43.00	4502.81	571.18	27.80	195.90	208.47	0.50
4654.00	43.00	4503.69	571.54	27.80	195.90	215.89	0.60
4655.00	43.00	4504.58	571.91	27.80	195.90	217.42	0.60
4656.00	25.00	4505.46	572.27	27.80	195.90	217.35	0.60
4657.00	33.00	4506.35	572.63	27.80	195.90	217.57	0.60
