~Version Information
VERS.     2.0  :CWLS LOG ASCII STANDARD - VERSION 2.0
WRAP.      NO  :ONE LINE PER DEPTH STEP
#MNEM   .UNIT                      DATA   INFORMATION
#----------------------------------------------------
~Well Information Block
 STRT   .F                      1650.00   :Start Depth
 STOP   .F                      5754.00   :Stop Depth
 STEP   .F                         1.00   :Step Value
 NULL   .                       -9999.0   :Null Value
 COMP   .              White Oak Energy   :COMPANY
 WELL   .             HC Cockburn #196H   :WELL
  FLD   .                                 :FIELD
  LOC   .                       Wharton   :LOCATION
 CNTY   .                       Wharton   :COUNTY
 STAT   .                         Texas   :STATE
 CTRY   .                           USA   :COUNTRY
 SRVC   . Supreme Source Energy Services Inc.   :SERVICE COMPANY
 DATE   .                    01/08/2018   :LOG DATE
  API   .                  42-481-35422   :API NUMBER
ELEVKB   .F                         18.8   :Elevation KB
ELEVDF   .F                           71   :Elevation DF
ELEVGL   .F                         89.8   :Elevation GL
# MNEM   .UNIT    DATA   INFORMATION
#----------------------------------------
~Curve Information
   DEP   .F             :Depth
  gama   .API           :Gamma
   tvd   .ft            :TVD
    vs   .ft            :VS
   Inc   .0             :Inclination
   Azm   .0             :Azimuth
   ROP   .0             :ROP
   gas   .Pct           :Gas Avg
#   DEP      gama       tvd        vs       Inc       Azm       ROP       gas
#------------------------------------------------------------------------------
~ASCII LOG DATA SECTION
# ...
3457.00	63.00	3437.55	135.91	21.10	189.60	114.76	0.30
3458.00	65.00	3438.47	136.23	21.10	189.60	125.70	0.30
3459.00	68.00	3439.39	136.54	21.10	189.60	86.58	0.30
3460.00	69.00	3440.32	136.86	21.10	189.60	68.57	0.30
3461.00	68.00	3441.24	137.17	21.10	189.60	80.06	0.30
3462.00	68.00	3442.16	137.49	21.10	189.60	93.88	0.30
3463.00	70.00	3443.08	137.81	21.10	189.60	62.79	0.30
3464.00	61.00	3444.01	138.12	21.10	189.60	94.63	0.30
3465.00	63.00	3444.93	138.44	21.10	189.60	94.41	0.30
3466.00	59.00	3445.85	138.75	21.10	189.60	103.54	0.30
3467.00	59.00	3446.77	139.07	21.10	189.60	109.64	0.30
3468.00	59.00	3447.70	139.39	21.10	189.60	115.44	0.30
3469.00	65.00	3448.62	139.70	21.10	189.60	165.40	0.30
3470.00	68.00	3449.54	140.02	21.10	189.60	154.42	0.30
3471.00	70.00	3450.46	140.33	21.10	189.60	139.01	0.30
3472.00	70.00	3451.39	140.65	21.10	189.60	136.79	0.30
3473.00	75.00	3452.31	140.97	21.10	189.60	137.98	0.30
3474.00	76.00	3453.23	141.28	21.10	189.60	130.70	0.30
3475.00	96.00	3454.15	141.60	21.10	189.60	77.42	0.30
3476.00	94.00	3455.08	141.91	21.10	189.60	178.33	0.30
3477.00	81.00	3456.00	142.23	21.10	189.60	170.80	0.30
3478.00	79.00	3456.92	142.55	21.10	189.60	200.84	0.30
3479.00	77.00	3457.84	142.86	21.10	189.60	173.57	0.30
3480.00	78.00	3458.77	143.18	21.10	189.60	161.05	0.30
3481.00	83.00	3459.69	143.49	21.10	189.60	134.55	0.20
3482.00	74.00	3460.61	143.81	21.10	189.60	55.11	0.30
3483.00	75.00	3461.53	144.13	21.10	189.60	51.15	0.30
3484.00	66.00	3462.46	144.44	21.10	189.60	47.90	0.30
3485.00	70.00	3463.38	144.76	21.10	189.60	44.65	0.30
3486.00	68.00	3464.30	145.07	21.10	189.60	41.40	0.30
3487.00	59.00	3465.22	145.39	21.10	189.60	41.27	0.30
3488.00	59.00	3466.15	145.71	21.10	189.60	89.45	0.30
3489.00	65.00	3467.07	146.02	21.10	189.60	115.75	0.30
3490.00	63.00	3467.99	146.34	21.10	189.60	104.02	0.30
3491.00	58.00	3468.92	146.65	21.10	189.60	108.07	0.30
3492.00	50.00	3469.84	146.97	21.10	189.60	50.62	0.30
3493.00	45.00	3470.76	147.29	21.10	189.60	51.34	0.30
3494.00	48.00	3471.68	147.60	21.10	189.60	52.08	0.30
3495.00	50.00	3472.60	147.92	21.10	189.60	52.62	0.30
3496.00	52.00	3473.53	148.23	21.10	189.60	28.09	0.30
3497.00	66.00	3474.45	148.55	21.10	189.60	56.73	0.30
3498.00	65.00	3475.37	148.87	24.30	194.80	61.63	0.30
3499.00	61.00	3476.27	149.21	24.30	194.80	80.19	-9999.00
3500.00	59.00	3477.17	149.55	24.30	194.80	96.25	-9999.00
3501.00	57.00	3478.08	149.90	24.30	194.80	108.84	-9999.00
3502.00	58.00	3478.98	150.24	24.30	194.80	58.66	-9999.00
3503.00	56.00	3479.88	150.59	24.30	194.80	74.88	0.30
3504.00	54.00	3480.78	150.93	24.30	194.80	80.15	0.30
3505.00	55.00	3481.68	151.27	24.30	194.80	81.79	0.30
3506.00	63.00	3482.58	151.62	24.30	194.80	78.13	0.30
3507.00	57.00	3483.48	151.96	24.30	194.80	107.32	0.30
3508.00	54.00	3484.38	152.30	24.30	194.80	85.63	0.30
3509.00	54.00	3485.28	152.65	24.30	194.80	91.24	1.00
3510.00	58.00	3486.18	152.99	24.30	194.80	98.56	1.00
3511.00	54.00	3487.09	153.33	24.30	194.80	102.54	1.00
3512.00	59.00	3487.99	153.68	24.30	194.80	92.71	0.30
3513.00	57.00	3488.89	154.02	24.30	194.80	66.77	0.30
3514.00	51.00	3489.79	154.37	24.30	194.80	104.01	0.30
3515.00	55.00	3490.69	154.71	24.30	194.80	97.36	0.30
3516.00	71.00	3491.59	155.05	24.30	194.80	103.29	0.30
3517.00	81.00	3492.49	155.40	24.30	194.80	44.97	0.30
3518.00	89.00	3493.39	155.74	24.30	194.80	138.83	0.30
3519.00	77.00	3494.29	156.08	24.30	194.80	158.06	0.30
3520.00	72.00	3495.19	156.43	24.30	194.80	5.41	0.30
3521.00	70.00	3496.10	156.77	24.30	194.80	164.00	0.30
3522.00	65.00	3497.00	157.12	24.30	194.80	140.31	0.30
3523.00	67.00	3497.90	157.46	24.30	194.80	124.34	0.30
3524.00	61.00	3498.80	157.80	24.30	194.80	75.23	0.30
3525.00	65.00	3499.70	158.15	24.30	194.80	73.06	0.30
3526.00	58.00	3500.60	158.49	24.30	194.80	71.77	0.30
3527.00	65.00	3501.50	158.83	24.30	194.80	74.24	0.30
3528.00	67.00	3502.40	159.18	24.30	194.80	81.38	0.30
3529.00	70.00	3503.30	159.52	24.30	194.80	88.44	0.30
3530.00	70.00	3504.20	159.86	24.30	194.80	93.50	0.30
3531.00	58.00	3505.11	160.21	24.30	194.80	163.10	0.30
3532.00	62.00	3506.01	160.55	24.30	194.80	86.34	0.30
3533.00	64.00	3506.91	160.90	24.30	194.80	177.85	0.30
3534.00	65.00	3507.81	161.24	24.30	194.80	88.28	0.30
3535.00	65.00	3508.71	161.58	24.30	194.80	78.88	0.30
3536.00	63.00	3509.61	161.93	24.30	194.80	69.18	0.30
3537.00	63.00	3510.51	162.27	24.30	194.80	68.42	0.30
3538.00	63.00	3511.41	162.61	24.30	194.80	61.38	0.20
3539.00	67.00	3512.31	162.96	24.30	194.80	94.57	0.30
3540.00	67.00	3513.21	163.30	24.30	194.80	85.64	0.30
3541.00	68.00	3514.11	163.65	24.30	194.80	106.52	0.30
3542.00	72.00	3515.02	163.99	24.30	194.80	100.12	0.30
3543.00	67.00	3515.92	164.33	24.30	194.80	73.57	0.30
3544.00	66.00	3516.82	164.68	24.30	194.80	103.96	0.30
3545.00	71.00	3517.72	165.02	24.30	194.80	108.41	0.30
3546.00	67.00	3518.62	165.36	24.30	194.80	172.11	0.30
3547.00	68.00	3519.52	165.71	24.30	194.80	59.05	0.30
3548.00	63.00	3520.42	166.05	24.30	194.80	63.98	0.30
3549.00	66.00	3521.32	166.39	24.30	194.80	41.11	0.30
3550.00	68.00	3522.22	166.74	24.30	194.80	94.22	0.30
3551.00	65.00	3523.12	167.08	24.30	194.80	64.62	0.30
3552.00	63.00	3524.03	167.43	24.30	194.80	34.76	0.30
3553.00	67.00	3524.93	167.77	24.30	194.80	4.44	0.20
3554.00	61.00	3525.83	168.11	24.30	194.80	55.19	0.30
3555.00	63.00	3526.73	168.46	24.30	194.80	43.54	0.30
3556.00	61.00	3527.63	168.80	24.30	194.80	67.90	0.30
3557.00	68.00	3528.53	169.14	24.30	194.80	63.19	0.20
3558.00	90.00	3529.43	169.49	24.30	194.80	84.20	0.20
3559.00	76.00	3530.33	169.83	24.30	194.80	87.04	0.20
3560.00	71.00	3531.23	170.18	24.30	194.80	75.17	0.20
3561.00	53.00	3532.13	170.52	27.10	195.20	92.42	0.20
3562.00	58.00	3533.02	170.89	27.10	195.20	98.98	0.20
3563.00	70.00	3533.90	171.27	27.10	195.20	112.94	0.20
3564.00	62.00	3534.79	171.64	27.10	195.20	60.40	0.20
3565.00	62.00	3535.67	172.01	27.10	195.20	45.84	0.20
3566.00	61.00	3536.56	172.39	27.10	195.20	71.86	0.20
3567.00	56.00	3537.44	172.76	27.10	195.20	90.03	0.20
3568.00	65.00	3538.33	173.13	27.10	195.20	117.25	0.20
3569.00	64.00	3539.21	173.51	27.10	195.20	118.02	0.20
3570.00	59.00	3540.09	173.88	27.10	195.20	78.98	0.30
3571.00	58.00	3540.98	174.25	27.10	195.20	110.00	0.20
3572.00	63.00	3541.86	174.63	27.10	195.20	142.33	0.20
3573.00	65.00	3542.75	175.00	27.10	195.20	121.36	0.30
3574.00	59.00	3543.63	175.37	27.10	195.20	101.60	0.30
3575.00	61.00	3544.52	175.75	27.10	195.20	85.96	0.30
3576.00	65.00	3545.40	176.12	27.10	195.20	86.58	0.30
3577.00	57.00	3546.29	176.49	27.10	195.20	84.00	0.30
3578.00	50.00	3547.17	176.87	27.10	195.20	73.38	0.30
3579.00	50.00	3548.05	177.24	27.10	195.20	97.43	0.30
3580.00	55.00	3548.94	177.61	27.10	195.20	105.78	0.30
3581.00	56.00	3549.82	177.99	27.10	195.20	87.74	0.30
3582.00	55.00	3550.71	178.36	27.10	195.20	90.01	0.30
3583.00	54.00	3551.59	178.73	27.10	195.20	97.19	0.30
3584.00	51.00	3552.48	179.11	27.10	195.20	71.31	0.30
3585.00	53.00	3553.36	179.48	27.10	195.20	71.06	0.30
3586.00	54.00	3554.25	179.85	27.10	195.20	77.21	0.30
3587.00	47.00	3555.13	180.23	27.10	195.20	78.65	0.30
3588.00	54.00	3556.01	180.60	27.10	195.20	77.30	0.30
3589.00	54.00	3556.90	180.97	27.10	195.20	71.92	0.30
3590.00	48.00	3557.78	181.35	27.10	195.20	79.85	0.30
3591.00	55.00	3558.67	181.72	27.10	195.20	75.54	0.30
3592.00	51.00	3559.55	182.09	27.10	195.20	87.36	0.30
3593.00	57.00	3560.44	182.47	27.10	195.20	79.20	0.30
3594.00	57.00	3561.32	182.84	27.10	195.20	63.78	0.30
3595.00	54.00	3562.21	183.21	27.10	195.20	56.80	0.30
3596.00	53.00	3563.09	183.59	27.10	195.20	56.79	0.30
3597.00	52.00	3563.98	183.96	27.10	195.20	70.58	0.30
3598.00	52.00	3564.86	184.33	27.10	195.20	76.79	0.30
3599.00	53.00	3565.74	184.71	27.10	195.20	78.53	0.30
3600.00	57.00	3566.63	185.08	27.10	195.20	91.69	0.30
3601.00	56.00	3567.51	185.45	27.10	195.20	90.70	0.30
3602.00	50.00	3568.40	185.83	27.10	195.20	89.80	0.30
3603.00	63.00	3569.28	186.20	27.10	195.20	96.34	0.30
3604.00	68.00	3570.17	186.57	27.10	195.20	98.37	0.30
3605.00	61.00	3571.05	186.95	27.10	195.20	94.09	0.30
3606.00	67.00	3571.94	187.32	27.10	195.20	97.43	0.30
