~Version Information
VERS.     2.0  :CWLS LOG ASCII STANDARD - VERSION 2.0
WRAP.      NO  :ONE LINE PER DEPTH STEP
#MNEM   .UNIT                      DATA   INFORMATION
#----------------------------------------------------
~Well Information Block
 STRT   .F                      1650.00   :Start Depth
 STOP   .F                      5754.00   :Stop Depth
 STEP   .F                         1.00   :Step Value
 NULL   .                       -9999.0   :Null Value
 COMP   .              White Oak Energy   :COMPANY
 WELL   .             HC Cockburn #196H   :WELL
  FLD   .                                 :FIELD
  LOC   .                       Wharton   :LOCATION
 CNTY   .                       Wharton   :COUNTY
 STAT   .                         Texas   :STATE
 CTRY   .                           USA   :COUNTRY
 SRVC   . Supreme Source Energy Services Inc.   :SERVICE COMPANY
 DATE   .                    01/08/2018   :LOG DATE
  API   .                  42-481-35422   :API NUMBER
ELEVKB   .F                         18.8   :Elevation KB
ELEVDF   .F                           71   :Elevation DF
ELEVGL   .F                         89.8   :Elevation GL
# MNEM   .UNIT    DATA   INFORMATION
#----------------------------------------
~Curve Information
   DEP   .F             :Depth
  gama   .API           :Gamma
   tvd   .ft            :TVD
    vs   .ft            :VS
   Inc   .0             :Inclination
   Azm   .0             :Azimuth
   ROP   .0             :ROP
   gas   .Pct           :Gas Avg
#   DEP      gama       tvd        vs       Inc       Azm       ROP       gas
#------------------------------------------------------------------------------
~ASCII LOG DATA SECTION
# ...
3153.00	77.00	3148.24	61.12	11.60	196.60	192.40	0.30
3154.00	81.00	3149.22	61.30	11.60	196.60	159.19	0.30
3155.00	83.00	3150.19	61.48	11.60	196.60	148.91	0.30
3156.00	83.00	3151.17	61.65	11.60	196.60	141.58	0.30
3157.00	83.00	3152.14	61.83	11.60	196.60	143.77	0.30
3158.00	83.00	3153.12	62.01	11.60	196.60	142.07	0.30
3159.00	73.00	3154.09	62.18	11.60	196.60	143.55	0.30
3160.00	68.00	3155.06	62.36	11.60	196.60	133.97	0.30
3161.00	67.00	3156.04	62.54	11.60	196.60	122.00	0.30
3162.00	66.00	3157.01	62.71	11.60	196.60	101.14	0.30
3163.00	64.00	3157.99	62.89	11.60	196.60	107.80	0.30
3164.00	64.00	3158.96	63.06	11.60	196.60	115.18	0.30
3165.00	54.00	3159.94	63.24	11.60	196.60	102.51	0.20
3166.00	65.00	3160.91	63.42	11.60	196.60	102.39	0.20
3167.00	60.00	3161.88	63.59	11.60	196.60	98.65	0.20
3168.00	70.00	3162.86	63.77	11.60	196.60	94.63	0.20
3169.00	62.00	3163.83	63.95	11.60	196.60	95.93	0.20
3170.00	65.00	3164.81	64.12	11.60	196.60	39.25	0.30
3171.00	65.00	3165.78	64.30	11.60	196.60	199.72	0.30
3172.00	66.00	3166.75	64.47	11.60	196.60	69.52	0.20
3173.00	65.00	3167.73	64.65	11.60	196.60	89.47	0.20
3174.00	72.00	3168.70	64.83	11.60	196.60	102.39	0.20
3175.00	75.00	3169.68	65.00	11.60	196.60	94.42	0.20
3176.00	65.00	3170.65	65.18	11.60	196.60	102.94	0.20
3177.00	70.00	3171.63	65.36	11.60	196.60	103.09	0.20
3178.00	75.00	3172.60	65.53	11.60	196.60	100.69	0.20
3179.00	77.00	3173.57	65.71	11.60	196.60	50.83	0.20
3180.00	70.00	3174.55	65.88	11.60	196.60	104.09	0.20
3181.00	75.00	3175.52	66.06	11.60	196.60	112.64	0.20
3182.00	76.00	3176.50	66.24	11.60	196.60	109.42	0.20
3183.00	76.00	3177.47	66.41	11.60	196.60	106.38	0.20
3184.00	81.00	3178.45	66.59	14.40	195.20	99.01	0.20
3185.00	75.00	3179.41	66.79	14.40	195.20	107.60	0.20
3186.00	81.00	3180.38	67.00	14.40	195.20	121.04	0.20
3187.00	72.00	3181.34	67.20	14.40	195.20	131.03	0.20
3188.00	75.00	3182.31	67.41	14.40	195.20	99.72	0.20
3189.00	71.00	3183.28	67.61	14.40	195.20	93.35	0.20
3190.00	76.00	3184.24	67.82	14.40	195.20	104.16	0.20
3191.00	75.00	3185.21	68.02	14.40	195.20	95.45	0.20
3192.00	75.00	3186.18	68.23	14.40	195.20	101.01	0.20
3193.00	75.00	3187.14	68.43	14.40	195.20	103.38	0.20
3194.00	75.00	3188.11	68.64	14.40	195.20	108.54	0.20
3195.00	75.00	3189.07	68.84	14.40	195.20	116.93	0.20
3196.00	75.00	3190.04	69.04	14.40	195.20	103.65	0.20
3197.00	70.00	3191.01	69.25	14.40	195.20	111.73	0.20
3198.00	69.00	3191.97	69.45	14.40	195.20	114.58	0.20
3199.00	70.00	3192.94	69.66	14.40	195.20	100.11	0.20
3200.00	70.00	3193.90	69.86	14.40	195.20	130.04	0.20
3201.00	68.00	3194.87	70.07	14.40	195.20	142.03	0.20
3202.00	69.00	3195.84	70.27	14.40	195.20	150.51	0.20
3203.00	63.00	3196.80	70.48	14.40	195.20	163.44	0.20
3204.00	67.00	3197.77	70.68	14.40	195.20	185.70	0.30
3205.00	70.00	3198.74	70.88	14.40	195.20	217.34	0.30
3206.00	74.00	3199.70	71.09	14.40	195.20	215.11	0.20
3207.00	67.00	3200.67	71.29	14.40	195.20	220.55	0.20
3208.00	71.00	3201.63	71.50	14.40	195.20	225.66	0.30
3209.00	66.00	3202.60	71.70	14.40	195.20	179.15	0.30
3210.00	59.00	3203.57	71.91	14.40	195.20	159.76	0.30
3211.00	60.00	3204.53	72.11	14.40	195.20	169.96	0.30
3212.00	60.00	3205.50	72.32	14.40	195.20	178.38	0.30
3213.00	58.00	3206.46	72.52	14.40	195.20	186.74	0.30
3214.00	65.00	3207.43	72.73	14.40	195.20	182.04	0.30
3215.00	65.00	3208.40	72.93	14.40	195.20	182.82	0.30
3216.00	68.00	3209.36	73.13	14.40	195.20	187.75	0.30
3217.00	65.00	3210.33	73.34	14.40	195.20	166.25	0.30
3218.00	71.00	3211.29	73.54	14.40	195.20	134.66	0.30
3219.00	70.00	3212.26	73.75	14.40	195.20	131.70	0.30
3220.00	64.00	3213.23	73.95	14.40	195.20	136.95	0.30
3221.00	67.00	3214.19	74.16	14.40	195.20	162.45	0.30
3222.00	68.00	3215.16	74.36	14.40	195.20	179.65	0.30
3223.00	69.00	3216.13	74.57	14.40	195.20	172.22	0.30
3224.00	73.00	3217.09	74.77	14.40	195.20	154.59	0.30
3225.00	61.00	3218.06	74.98	14.40	195.20	123.68	0.30
3226.00	67.00	3219.02	75.18	14.40	195.20	116.85	0.30
3227.00	69.00	3219.99	75.38	14.40	195.20	112.06	0.30
3228.00	62.00	3220.96	75.59	14.40	195.20	115.93	0.30
3229.00	65.00	3221.92	75.79	14.40	195.20	112.43	0.30
3230.00	67.00	3222.89	76.00	14.40	195.20	92.05	0.30
3231.00	63.00	3223.85	76.20	14.40	195.20	94.86	0.30
3232.00	70.00	3224.82	76.41	14.40	195.20	91.60	0.30
3233.00	61.00	3225.79	76.61	14.40	195.20	50.81	0.30
3234.00	61.00	3226.75	76.82	14.40	195.20	21.05	0.30
3235.00	58.00	3227.72	77.02	14.40	195.20	174.88	0.30
3236.00	61.00	3228.69	77.22	14.40	195.20	101.08	0.30
3237.00	52.00	3229.65	77.43	14.40	195.20	120.07	0.30
3238.00	56.00	3230.62	77.63	14.40	195.20	232.18	0.30
3239.00	66.00	3231.58	77.84	14.40	195.20	147.04	0.20
3240.00	61.00	3232.55	78.04	14.40	195.20	227.53	0.20
3241.00	62.00	3233.52	78.25	14.40	195.20	244.17	0.30
3242.00	56.00	3234.48	78.45	14.40	195.20	97.89	0.30
3243.00	69.00	3235.45	78.66	14.40	195.20	88.97	0.20
3244.00	76.00	3236.41	78.86	14.40	195.20	6.23	0.30
3245.00	67.00	3237.38	79.07	14.40	195.20	170.43	0.20
3246.00	77.00	3238.35	79.27	14.40	195.20	34.02	0.30
3247.00	71.00	3239.31	79.47	15.50	194.80	44.25	0.30
3248.00	76.00	3240.27	79.70	15.50	194.80	105.39	0.30
3249.00	73.00	3241.23	79.93	15.50	194.80	87.94	0.30
3250.00	72.00	3242.19	80.16	15.50	194.80	96.82	0.20
3251.00	83.00	3243.15	80.38	15.50	194.80	72.23	0.20
3252.00	76.00	3244.11	80.61	15.50	194.80	65.31	0.20
3253.00	65.00	3245.06	80.84	15.50	194.80	107.51	0.20
3254.00	70.00	3246.02	81.06	15.50	194.80	97.72	0.20
3255.00	74.00	3246.98	81.29	15.50	194.80	96.88	0.30
3256.00	72.00	3247.94	81.52	15.50	194.80	87.26	0.30
3257.00	57.00	3248.90	81.74	15.50	194.80	92.89	0.30
3258.00	53.00	3249.86	81.97	15.50	194.80	99.04	0.30
3259.00	53.00	3250.82	82.20	15.50	194.80	64.54	0.30
3260.00	55.00	3251.77	82.42	15.50	194.80	57.68	0.30
3261.00	56.00	3252.73	82.65	15.50	194.80	37.80	0.30
3262.00	57.00	3253.69	82.88	15.50	194.80	57.12	0.30
3263.00	55.00	3254.65	83.10	15.50	194.80	73.13	0.30
3264.00	57.00	3255.61	83.33	15.50	194.80	75.74	0.30
3265.00	57.00	3256.57	83.56	15.50	194.80	64.67	0.30
3266.00	58.00	3257.52	83.79	15.50	194.80	73.50	0.30
3267.00	61.00	3258.48	84.01	15.50	194.80	75.60	0.30
3268.00	65.00	3259.44	84.24	15.50	194.80	78.43	0.30
3269.00	62.00	3260.40	84.47	15.50	194.80	84.39	0.30
3270.00	64.00	3261.36	84.69	15.50	194.80	92.93	0.30
3271.00	66.00	3262.32	84.92	15.50	194.80	96.68	0.30
3272.00	67.00	3263.28	85.15	15.50	194.80	119.87	0.30
3273.00	68.00	3264.23	85.37	15.50	194.80	100.44	0.30
3274.00	70.00	3265.19	85.60	15.50	194.80	88.55	0.30
3275.00	69.00	3266.15	85.83	15.50	194.80	105.97	0.30
3276.00	71.00	3267.11	86.05	15.50	194.80	105.59	0.30
3277.00	71.00	3268.07	86.28	15.50	194.80	87.96	0.30
3278.00	72.00	3269.03	86.51	15.50	194.80	75.93	0.30
3279.00	74.00	3269.99	86.73	15.50	194.80	111.85	0.30
3280.00	70.00	3270.94	86.96	15.50	194.80	116.59	0.30
3281.00	72.00	3271.90	87.19	15.50	194.80	141.24	0.30
3282.00	66.00	3272.86	87.42	15.50	194.80	124.07	0.30
3283.00	70.00	3273.82	87.64	15.50	194.80	123.75	0.30
3284.00	65.00	3274.78	87.87	15.50	194.80	122.35	0.30
3285.00	67.00	3275.74	88.10	15.50	194.80	105.04	0.30
3286.00	70.00	3276.70	88.32	15.50	194.80	108.28	0.30
3287.00	62.00	3277.65	88.55	15.50	194.80	107.98	0.30
3288.00	58.00	3278.61	88.78	15.50	194.80	109.16	0.30
3289.00	66.00	3279.57	89.00	15.50	194.80	77.60	0.30
3290.00	56.00	3280.53	89.23	15.50	194.80	100.84	0.30
3291.00	58.00	3281.49	89.46	15.50	194.80	110.07	0.30
3292.00	55.00	3282.45	89.68	15.50	194.80	93.57	0.30
3293.00	65.00	3283.40	89.91	15.50	194.80	126.27	0.30
3294.00	70.00	3284.36	90.14	15.50	194.80	148.04	0.30
3295.00	66.00	3285.32	90.36	15.50	194.80	66.98	0.30
3296.00	77.00	3286.28	90.59	15.50	194.80	71.03	0.30
3297.00	65.00	3287.24	90.82	15.50	194.80	115.88	0.30
3298.00	67.00	3288.20	91.05	15.50	194.80	119.14	0.30
3299.00	49.00	3289.16	91.27	15.50	194.80	9.17	0.30
3300.00	55.00	3290.11	91.50	15.50	194.80	19.29	0.30
3301.00	58.00	3291.07	91.73	15.50	194.80	16.82	0.30
3302.00	55.00	3292.03	91.95	15.50	194.80	32.03	0.30
3303.00	52.00	3292.99	92.18	15.50	194.80	44.79	0.30
3304.00	54.00	3293.95	92.41	15.50	194.80	52.99	0.30
3305.00	51.00	3294.91	92.63	15.50	194.80	85.39	0.30
