~Version Information
VERS.     2.0  :CWLS LOG ASCII STANDARD - VERSION 2.0
WRAP.      NO  :ONE LINE PER DEPTH STEP
#MNEM   .UNIT                      DATA   INFORMATION
#----------------------------------------------------
~Well Information Block
 STRT   .F                      1650.00   :Start Depth
 STOP   .F                      5754.00   :Stop Depth
 STEP   .F                         1.00   :Step Value
 NULL   .                       -9999.0   :Null Value
 COMP   .              White Oak Energy   :COMPANY
 WELL   .             HC Cockburn #196H   :WELL
  FLD   .                                 :FIELD
  LOC   .                       Wharton   :LOCATION
 CNTY   .                       Wharton   :COUNTY
 STAT   .                         Texas   :STATE
 CTRY   .                           USA   :COUNTRY
 SRVC   . Supreme Source Energy Services Inc.   :SERVICE COMPANY
 DATE   .                    01/08/2018   :LOG DATE
  API   .                  42-481-35422   :API NUMBER
ELEVKB   .F                         18.8   :Elevation KB
ELEVDF   .F                           71   :Elevation DF
ELEVGL   .F                         89.8   :Elevation GL
# MNEM   .UNIT    DATA   INFORMATION
#----------------------------------------
~Curve Information
   DEP   .F             :Depth
  gama   .API           :Gamma
   tvd   .ft            :TVD
    vs   .ft            :VS
   Inc   .0             :Inclination
   Azm   .0             :Azimuth
   ROP   .0             :ROP
   gas   .Pct           :Gas Avg
#   DEP      gama       tvd        vs       Inc       Azm       ROP       gas
#------------------------------------------------------------------------------
~ASCII LOG DATA SECTION
# ...
4807.00	43.00	4639.22	626.96	27.80	196.20	610.73	0.20
4808.00	34.00	4640.10	627.32	27.80	196.20	595.07	0.20
4809.00	36.00	4640.99	627.68	27.80	196.20	590.28	0.20
4810.00	38.00	4641.88	628.04	27.80	196.20	591.12	0.20
4811.00	35.00	4642.76	628.40	27.80	196.20	596.44	0.20
4812.00	40.00	4643.65	628.77	27.80	196.20	601.04	0.20
4813.00	36.00	4644.53	629.13	27.80	196.20	598.81	0.20
4814.00	35.00	4645.42	629.49	27.80	196.20	598.00	0.20
4815.00	37.00	4646.30	629.85	27.80	196.20	619.70	0.20
4816.00	36.00	4647.19	630.21	27.80	196.20	622.53	0.20
4817.00	35.00	4648.08	630.57	27.80	196.20	696.22	0.20
4818.00	35.00	4648.96	630.93	27.50	196.60	790.46	0.20
4819.00	34.00	4649.85	631.29	27.50	196.60	845.40	0.20
4820.00	33.00	4650.73	631.65	27.50	196.60	821.43	0.20
4821.00	33.00	4651.62	632.01	27.50	196.60	781.27	0.20
4822.00	53.00	4652.50	632.37	27.50	196.60	771.80	0.20
4823.00	68.00	4653.39	632.73	27.50	196.60	801.71	0.20
4824.00	86.00	4654.28	633.10	27.50	196.60	534.74	0.20
4825.00	91.00	4655.16	633.46	27.50	196.60	75.00	0.20
4826.00	73.00	4656.05	633.82	27.50	196.60	90.69	0.20
4827.00	63.00	4656.93	634.18	27.50	196.60	109.09	0.20
4828.00	54.00	4657.82	634.54	27.50	196.60	115.37	0.20
4829.00	44.00	4658.71	634.90	27.50	196.60	108.46	0.20
4830.00	40.00	4659.59	635.26	27.50	196.60	107.21	0.20
4831.00	36.00	4660.48	635.62	27.50	196.60	123.20	0.20
4832.00	25.00	4661.36	635.98	27.50	196.60	58.07	0.30
4833.00	34.00	4662.25	636.34	27.50	196.60	72.94	0.30
4834.00	36.00	4663.13	636.70	27.50	196.60	83.63	0.30
4835.00	32.00	4664.02	637.06	27.50	196.60	91.16	0.40
4836.00	36.00	4664.91	637.43	27.50	196.60	111.94	0.40
4837.00	38.00	4665.79	637.79	27.50	196.60	238.60	0.40
4838.00	34.00	4666.68	638.15	27.50	196.60	266.82	0.40
4839.00	31.00	4667.56	638.51	27.50	196.60	280.04	0.40
4840.00	31.00	4668.45	638.87	27.50	196.60	317.63	0.40
4841.00	34.00	4669.34	639.23	27.50	196.60	355.81	0.40
4842.00	30.00	4670.22	639.59	27.50	196.60	258.12	0.40
4843.00	35.00	4671.11	639.95	27.50	196.60	311.95	0.40
4844.00	31.00	4671.99	640.31	27.50	196.60	346.58	0.40
4845.00	33.00	4672.88	640.67	27.50	196.60	292.51	0.40
4846.00	35.00	4673.76	641.03	27.50	196.60	325.22	0.40
4847.00	36.00	4674.65	641.40	27.50	196.60	407.14	0.40
4848.00	25.00	4675.54	641.76	27.50	196.60	540.96	0.40
4849.00	33.00	4676.42	642.12	27.50	196.60	491.19	0.40
4850.00	36.00	4677.31	642.48	27.50	196.60	78.19	0.40
4851.00	37.00	4678.19	642.84	27.50	196.60	84.61	0.40
4852.00	36.00	4679.08	643.20	27.50	196.60	76.25	0.30
4853.00	33.00	4679.96	643.56	27.50	196.60	80.71	0.30
4854.00	32.00	4680.85	643.92	27.50	196.60	81.90	0.30
4855.00	31.00	4681.74	644.28	27.50	196.60	116.10	0.30
4856.00	33.00	4682.62	644.64	27.50	196.60	195.36	0.30
4857.00	34.00	4683.51	645.00	27.50	196.60	42.74	0.30
4858.00	27.00	4684.39	645.36	27.50	196.60	106.04	0.30
4859.00	36.00	4685.28	645.73	27.50	196.60	71.57	0.30
4860.00	32.00	4686.17	646.09	27.50	196.60	109.55	0.20
4861.00	39.00	4687.05	646.45	27.50	196.60	335.31	0.20
4862.00	36.00	4687.94	646.81	27.50	196.60	197.99	0.20
4863.00	34.00	4688.82	647.17	27.50	196.60	114.61	-9999.00
4864.00	40.00	4689.71	647.53	27.50	196.60	173.68	0.20
4865.00	37.00	4690.59	647.89	27.50	196.60	247.49	0.20
4866.00	36.00	4691.48	648.25	27.50	196.60	204.05	-9999.00
4867.00	36.00	4692.37	648.61	27.50	196.60	197.30	0.20
4868.00	35.00	4693.25	648.97	27.50	196.60	196.63	0.20
4869.00	35.00	4694.14	649.33	27.50	196.60	196.75	-9999.00
4870.00	36.00	4695.02	649.69	27.50	196.60	197.52	-9999.00
4871.00	33.00	4695.91	650.06	27.50	196.60	195.46	-9999.00
4872.00	36.00	4696.79	650.42	27.50	196.60	196.64	-9999.00
4873.00	32.00	4697.68	650.78	27.50	196.60	195.05	-9999.00
4874.00	34.00	4698.57	651.14	27.50	196.60	200.69	-9999.00
4875.00	31.00	4699.45	651.50	27.50	196.60	197.65	-9999.00
4876.00	34.00	4700.34	651.86	27.50	196.60	197.23	-9999.00
4877.00	35.00	4701.22	652.22	27.50	196.60	197.50	-9999.00
4878.00	37.00	4702.11	652.58	27.50	196.60	198.62	-9999.00
4879.00	31.00	4703.00	652.94	27.50	196.60	196.26	-9999.00
4880.00	29.00	4703.88	653.30	27.50	196.60	194.44	-9999.00
4881.00	31.00	4704.77	653.66	27.80	196.20	183.04	-9999.00
4882.00	32.00	4705.65	654.03	27.80	196.20	194.70	-9999.00
4883.00	33.00	4706.54	654.39	27.80	196.20	181.72	-9999.00
4884.00	38.00	4707.42	654.75	27.80	196.20	182.91	-9999.00
4885.00	43.00	4708.31	655.11	27.80	196.20	182.59	-9999.00
4886.00	48.00	4709.20	655.47	27.80	196.20	194.98	-9999.00
4887.00	53.00	4710.08	655.84	27.80	196.20	193.45	-9999.00
4888.00	59.00	4710.97	656.20	27.80	196.20	191.13	-9999.00
4889.00	64.00	4711.85	656.56	27.80	196.20	195.70	-9999.00
4890.00	69.00	4712.74	656.92	27.80	196.20	195.01	-9999.00
4891.00	74.00	4713.62	657.28	27.80	196.20	194.69	-9999.00
4892.00	79.00	4714.51	657.64	27.80	196.20	194.18	-9999.00
4893.00	84.00	4715.40	658.01	27.80	196.20	190.28	-9999.00
4894.00	85.00	4716.28	658.37	27.80	196.20	171.04	-9999.00
4895.00	90.00	4717.17	658.73	27.80	196.20	168.30	-9999.00
4896.00	83.00	4718.05	659.09	27.80	196.20	192.88	-9999.00
4897.00	79.00	4718.94	659.45	27.80	196.20	191.52	-9999.00
4898.00	71.00	4719.83	659.82	27.80	196.20	185.01	-9999.00
4899.00	69.00	4720.71	660.18	27.80	196.20	183.36	-9999.00
4900.00	70.00	4721.60	660.54	27.80	196.20	185.56	-9999.00
4901.00	70.00	4722.48	660.90	27.80	196.20	192.99	-9999.00
4902.00	40.00	4723.37	661.26	27.80	196.20	184.17	-9999.00
4903.00	28.00	4724.25	661.63	27.80	196.20	182.75	-9999.00
4904.00	24.00	4725.14	661.99	27.80	196.20	188.90	-9999.00
4905.00	29.00	4726.03	662.35	27.80	196.20	180.11	-9999.00
4906.00	31.00	4726.91	662.71	27.80	196.20	187.29	-9999.00
4907.00	33.00	4727.80	663.07	27.80	196.20	193.27	-9999.00
4908.00	24.00	4728.68	663.43	27.80	196.20	181.89	-9999.00
4909.00	25.00	4729.57	663.80	27.80	196.20	189.93	-9999.00
4910.00	29.00	4730.46	664.16	27.80	196.20	183.91	-9999.00
4911.00	30.00	4731.34	664.52	27.80	196.20	186.52	-9999.00
4912.00	31.00	4732.23	664.88	27.80	196.20	190.51	-9999.00
4913.00	30.00	4733.11	665.24	27.80	196.20	181.50	-9999.00
4914.00	31.00	4734.00	665.61	27.80	196.20	186.64	-9999.00
4915.00	31.00	4734.88	665.97	27.80	196.20	195.80	-9999.00
4916.00	55.00	4735.77	666.33	27.80	196.20	187.69	-9999.00
4917.00	69.00	4736.66	666.69	27.80	196.20	182.01	-9999.00
4918.00	66.00	4737.54	667.05	27.80	196.20	193.61	-9999.00
4919.00	65.00	4738.43	667.42	27.80	196.20	195.45	-9999.00
4920.00	74.00	4739.31	667.78	27.80	196.20	192.07	-9999.00
4921.00	70.00	4740.20	668.14	27.80	196.20	178.01	-9999.00
4922.00	60.00	4741.08	668.50	27.80	196.20	189.32	-9999.00
4923.00	56.00	4741.97	668.86	27.80	196.20	42.92	-9999.00
4924.00	47.00	4742.86	669.22	27.80	196.20	113.94	-9999.00
4925.00	52.00	4743.74	669.59	27.80	196.20	114.79	-9999.00
4926.00	56.00	4744.63	669.95	27.80	196.20	112.49	-9999.00
4927.00	57.00	4745.51	670.31	27.80	196.20	111.20	-9999.00
4928.00	65.00	4746.40	670.67	27.80	196.20	202.42	-9999.00
4929.00	73.00	4747.29	671.03	27.80	196.20	194.84	-9999.00
4930.00	70.00	4748.17	671.40	27.80	196.20	192.34	-9999.00
4931.00	69.00	4749.06	671.76	27.80	196.20	193.74	-9999.00
4932.00	68.00	4749.94	672.12	27.80	196.20	194.62	-9999.00
4933.00	75.00	4750.83	672.48	27.80	196.20	197.11	-9999.00
4934.00	76.00	4751.71	672.84	27.80	196.20	197.05	-9999.00
4935.00	76.00	4752.60	673.21	27.80	196.20	197.22	-9999.00
4936.00	58.00	4753.49	673.57	27.80	196.20	197.47	-9999.00
4937.00	57.00	4754.37	673.93	27.80	196.20	196.17	-9999.00
4938.00	57.00	4755.26	674.29	27.80	196.20	197.00	-9999.00
4939.00	35.00	4756.14	674.65	27.80	196.20	193.92	-9999.00
4940.00	38.00	4757.03	675.01	27.80	196.20	196.50	-9999.00
4941.00	38.00	4757.92	675.38	27.80	196.20	198.00	-9999.00
4942.00	38.00	4758.80	675.74	27.80	196.20	196.47	-9999.00
4943.00	36.00	4759.69	676.10	27.50	196.20	188.05	-9999.00
4944.00	34.00	4760.57	676.46	27.50	196.20	192.18	-9999.00
4945.00	32.00	4761.46	676.82	27.50	196.20	192.58	-9999.00
4946.00	32.00	4762.35	677.19	27.50	196.20	182.40	-9999.00
4947.00	35.00	4763.23	677.55	27.50	196.20	186.40	-9999.00
4948.00	36.00	4764.12	677.91	27.50	196.20	185.48	-9999.00
4949.00	38.00	4765.01	678.27	27.50	196.20	194.35	-9999.00
