~Version Information
VERS.     2.0  :CWLS LOG ASCII STANDARD - VERSION 2.0
WRAP.      NO  :ONE LINE PER DEPTH STEP
#MNEM   .UNIT                      DATA   INFORMATION
#----------------------------------------------------
~Well Information Block
 STRT   .F                      1650.00   :Start Depth
 STOP   .F                      5754.00   :Stop Depth
 STEP   .F                         1.00   :Step Value
 NULL   .                       -9999.0   :Null Value
 COMP   .              White Oak Energy   :COMPANY
 WELL   .             HC Cockburn #196H   :WELL
  FLD   .                                 :FIELD
  LOC   .                       Wharton   :LOCATION
 CNTY   .                       Wharton   :COUNTY
 STAT   .                         Texas   :STATE
 CTRY   .                           USA   :COUNTRY
 SRVC   . Supreme Source Energy Services Inc.   :SERVICE COMPANY
 DATE   .                    01/08/2018   :LOG DATE
  API   .                  42-481-35422   :API NUMBER
ELEVKB   .F                         18.8   :Elevation KB
ELEVDF   .F                           71   :Elevation DF
ELEVGL   .F                         89.8   :Elevation GL
# MNEM   .UNIT    DATA   INFORMATION
#----------------------------------------
~Curve Information
   DEP   .F             :Depth
  gama   .API           :Gamma
   tvd   .ft            :TVD
    vs   .ft            :VS
   Inc   .0             :Inclination
   Azm   .0             :Azimuth
   ROP   .0             :ROP
   gas   .Pct           :Gas Avg
#   DEP      gama       tvd        vs       Inc       Azm       ROP       gas
#------------------------------------------------------------------------------
~ASCII LOG DATA SECTION
# ...
4359.00	37.00	4240.14	466.56	26.07	194.83	70.91	0.30
4360.00	32.00	4241.03	466.90	26.07	194.83	5.14	0.30
4361.00	38.00	4241.93	467.25	26.07	194.83	43.01	0.30
4362.00	40.00	4242.83	467.60	26.07	194.83	70.86	0.30
4363.00	41.00	4243.73	467.95	26.07	194.83	28.25	0.30
4364.00	39.00	4244.63	468.30	26.07	194.83	116.84	0.30
4365.00	41.00	4245.53	468.65	26.07	194.83	27.20	0.30
4366.00	47.00	4246.42	468.99	26.07	194.83	105.64	0.30
4367.00	41.00	4247.32	469.34	26.07	194.83	156.56	0.30
4368.00	37.00	4248.22	469.69	26.07	194.83	127.57	0.30
4369.00	42.00	4249.12	470.04	26.07	194.83	36.05	0.30
4370.00	43.00	4250.02	470.39	26.07	194.83	181.49	0.30
4371.00	37.00	4250.92	470.74	26.07	194.83	48.55	0.30
4372.00	45.00	4251.81	471.08	26.07	194.83	89.72	0.30
4373.00	41.00	4252.71	471.43	26.07	194.83	24.69	0.30
4374.00	40.00	4253.61	471.78	26.07	194.83	132.61	0.30
4375.00	39.00	4254.51	472.13	26.07	194.83	59.23	0.30
4376.00	58.00	4255.41	472.48	26.07	194.83	88.06	0.30
4377.00	47.00	4256.30	472.83	26.07	194.83	207.63	0.30
4378.00	48.00	4257.20	473.17	26.07	195.18	239.39	0.30
4379.00	49.00	4258.10	473.52	26.07	195.18	237.89	0.30
4380.00	50.00	4259.00	473.86	26.07	195.18	237.35	0.30
4381.00	45.00	4259.91	474.20	26.07	195.18	237.36	0.30
4382.00	50.00	4260.81	474.54	26.07	195.18	235.84	0.30
4383.00	53.00	4261.71	474.89	26.07	195.18	237.63	0.30
4384.00	46.00	4262.61	475.23	26.07	195.18	236.67	0.30
4385.00	54.00	4263.51	475.57	26.07	195.18	236.82	0.30
4386.00	45.00	4264.41	475.92	26.07	195.18	237.15	0.30
4387.00	43.00	4265.31	476.26	26.07	195.18	237.36	0.30
4388.00	37.00	4266.21	476.60	26.07	195.18	159.83	0.30
4389.00	43.00	4267.11	476.94	26.07	195.18	137.06	0.30
4390.00	43.00	4268.01	477.29	26.07	195.18	231.18	0.30
4391.00	47.00	4268.91	477.63	26.07	195.18	205.96	0.30
4392.00	59.00	4269.81	477.97	26.07	195.18	229.27	0.30
4393.00	48.00	4270.72	478.31	26.07	195.18	238.34	0.30
4394.00	38.00	4271.62	478.66	26.07	195.18	237.31	0.30
4395.00	38.00	4272.52	479.00	26.07	195.18	234.89	0.30
4396.00	53.00	4273.42	479.34	26.07	195.18	238.29	0.30
4397.00	47.00	4274.32	479.68	26.07	195.18	237.08	0.30
4398.00	39.00	4275.22	480.03	26.07	195.18	235.38	0.30
4399.00	59.00	4276.12	480.37	26.07	195.18	234.23	0.30
4400.00	66.00	4277.02	480.71	26.07	195.18	16.92	0.30
4401.00	67.00	4277.92	481.05	26.07	195.18	16.88	0.30
4402.00	81.00	4278.82	481.40	26.07	195.18	123.06	0.30
4403.00	70.00	4279.72	481.74	26.07	195.18	171.08	0.30
4404.00	73.00	4280.62	482.08	26.07	195.18	182.84	0.30
4405.00	78.00	4281.52	482.43	26.07	195.18	180.14	0.30
4406.00	74.00	4282.43	482.77	26.07	195.18	148.16	0.30
4407.00	81.00	4283.33	483.11	26.07	195.18	122.86	0.30
4408.00	76.00	4284.23	483.45	26.07	195.18	168.99	0.30
4409.00	74.00	4285.13	483.80	26.07	195.18	167.26	0.30
4410.00	76.00	4286.03	484.14	26.07	195.18	138.07	0.30
4411.00	65.00	4286.93	484.48	26.07	195.18	164.17	0.30
4412.00	70.00	4287.83	484.82	26.07	195.18	159.23	0.40
4413.00	74.00	4288.73	485.17	26.07	195.18	173.32	0.40
4414.00	76.00	4289.63	485.51	26.07	195.18	149.80	0.40
4415.00	78.00	4290.53	485.85	26.07	195.18	160.24	0.30
4416.00	73.00	4291.43	486.19	26.07	195.18	166.67	0.40
4417.00	70.00	4292.33	486.54	26.07	195.18	172.69	0.40
4418.00	76.00	4293.24	486.88	26.07	195.18	167.16	0.40
4419.00	67.00	4294.14	487.22	26.07	195.18	161.78	0.40
4420.00	65.00	4295.04	487.56	26.07	195.18	141.07	0.40
4421.00	59.00	4295.94	487.91	26.07	195.18	143.68	0.40
4422.00	59.00	4296.84	488.25	26.07	195.18	105.83	0.40
4423.00	59.00	4297.74	488.59	26.07	195.18	91.19	0.30
4424.00	65.00	4298.64	488.94	26.07	195.18	153.99	0.30
4425.00	70.00	4299.54	489.28	26.07	195.18	69.54	0.30
4426.00	60.00	4300.44	489.62	26.07	195.18	80.29	0.30
4427.00	76.00	4301.34	489.96	26.07	195.18	67.17	0.30
4428.00	79.00	4302.24	490.31	26.07	195.18	61.98	0.30
4429.00	106.00	4303.14	490.65	26.07	195.18	48.15	0.30
4430.00	86.00	4304.04	490.99	26.07	195.18	61.72	0.30
4431.00	76.00	4304.95	491.33	26.07	195.18	57.29	0.30
4432.00	71.00	4305.85	491.68	26.07	195.18	66.17	0.30
4433.00	70.00	4306.75	492.02	26.07	195.18	84.95	0.30
4434.00	57.00	4307.65	492.36	26.07	195.18	79.88	0.30
4435.00	54.00	4308.55	492.70	26.07	195.18	83.16	0.30
4436.00	54.00	4309.45	493.05	26.07	195.18	75.63	0.30
4437.00	61.00	4310.35	493.39	26.07	195.18	81.36	0.30
4438.00	59.00	4311.25	493.73	26.07	195.18	68.54	0.30
4439.00	55.00	4312.15	494.07	26.07	195.18	79.85	0.30
4440.00	56.00	4313.05	494.42	25.40	195.50	76.56	0.30
4441.00	57.00	4313.95	494.77	25.40	195.50	70.73	0.30
4442.00	58.00	4314.85	495.11	25.40	195.50	66.10	0.30
4443.00	58.00	4315.75	495.46	25.40	195.50	84.18	0.30
4444.00	57.00	4316.65	495.81	25.40	195.50	81.05	0.30
4445.00	51.00	4317.55	496.16	25.40	195.50	80.06	0.30
4446.00	54.00	4318.45	496.50	25.40	195.50	98.34	0.30
4447.00	54.00	4319.35	496.85	25.40	195.50	88.75	0.30
4448.00	54.00	4320.25	497.20	25.40	195.50	88.13	0.30
4449.00	54.00	4321.15	497.55	25.40	195.50	58.14	0.30
4450.00	58.00	4322.05	497.90	25.40	195.50	105.90	0.30
4451.00	69.00	4322.95	498.24	25.40	195.50	58.14	0.30
4452.00	67.00	4323.85	498.59	25.40	195.50	69.78	0.30
4453.00	59.00	4324.75	498.94	25.40	195.50	62.06	0.40
4454.00	70.00	4325.65	499.29	25.40	195.50	129.30	0.40
4455.00	80.00	4326.55	499.64	25.40	195.50	161.68	0.40
4456.00	73.00	4327.45	499.98	25.40	195.50	132.02	0.40
4457.00	68.00	4328.35	500.33	25.40	195.50	89.73	0.40
4458.00	68.00	4329.25	500.68	25.40	195.50	87.70	0.40
4459.00	71.00	4330.15	501.03	25.40	195.50	57.35	0.40
4460.00	79.00	4331.04	501.38	25.40	195.50	46.84	0.40
4461.00	80.00	4331.94	501.72	25.40	195.50	50.23	0.40
4462.00	76.00	4332.84	502.07	25.40	195.50	71.90	0.30
4463.00	83.00	4333.74	502.42	25.40	195.50	154.77	0.30
4464.00	83.00	4334.64	502.77	25.40	195.50	127.18	0.30
4465.00	89.00	4335.54	503.12	25.40	195.50	142.83	0.30
4466.00	77.00	4336.44	503.46	25.40	195.50	131.40	0.30
4467.00	71.00	4337.34	503.81	25.40	195.50	129.87	0.30
4468.00	68.00	4338.24	504.16	25.40	195.50	135.74	0.30
4469.00	66.00	4339.14	504.51	25.40	195.50	127.25	0.40
4470.00	67.00	4340.04	504.85	25.40	195.50	101.48	0.40
4471.00	60.00	4340.94	505.20	25.40	195.50	105.28	0.40
4472.00	61.00	4341.84	505.55	25.40	195.50	98.33	0.40
4473.00	60.00	4342.74	505.90	25.40	195.50	85.13	0.40
4474.00	60.00	4343.64	506.25	25.40	195.50	63.01	0.40
4475.00	59.00	4344.54	506.59	25.40	195.50	57.76	0.30
4476.00	58.00	4345.44	506.94	25.40	195.50	65.95	0.30
4477.00	58.00	4346.34	507.29	25.40	195.50	68.75	0.30
4478.00	62.00	4347.24	507.64	25.40	195.50	69.97	0.30
4479.00	60.00	4348.14	507.99	25.40	195.50	43.71	0.30
4480.00	59.00	4349.04	508.33	25.40	195.50	55.16	0.30
4481.00	62.00	4349.94	508.68	25.40	195.50	57.01	0.40
4482.00	61.00	4350.83	509.03	25.40	195.50	50.32	0.40
4483.00	59.00	4351.73	509.38	25.40	195.50	60.14	0.40
4484.00	58.00	4352.63	509.73	25.40	195.50	61.72	0.40
4485.00	55.00	4353.53	510.07	25.40	195.50	57.87	0.40
4486.00	56.00	4354.43	510.42	25.40	195.50	51.74	0.30
4487.00	57.00	4355.33	510.77	25.40	195.50	35.88	0.30
4488.00	58.00	4356.23	511.12	25.40	195.50	41.06	0.30
4489.00	61.00	4357.13	511.46	25.40	195.50	58.86	0.20
4490.00	59.00	4358.03	511.81	25.40	195.50	42.99	0.30
4491.00	67.00	4358.93	512.16	25.40	195.50	90.80	0.30
4492.00	70.00	4359.83	512.51	25.40	195.50	118.54	0.30
4493.00	70.00	4360.73	512.86	25.40	195.50	60.51	0.30
4494.00	73.00	4361.63	513.20	25.40	195.50	71.58	0.30
4495.00	70.00	4362.53	513.55	25.40	195.50	58.17	0.30
4496.00	73.00	4363.43	513.90	25.40	195.50	66.85	0.30
4497.00	71.00	4364.33	514.25	25.40	195.50	78.50	0.30
4498.00	73.00	4365.23	514.60	25.40	195.50	53.93	76.00
4499.00	78.00	4366.13	514.94	25.40	195.50	53.02	0.30
4500.00	75.00	4367.03	515.29	25.40	195.50	62.80	0.30
4501.00	68.00	4367.93	515.64	25.40	195.50	71.59	0.30
4502.00	63.00	4368.83	515.99	25.40	195.50	62.99	0.30
4503.00	64.00	4369.73	516.34	25.40	195.50	82.95	0.30
4504.00	65.00	4370.62	516.68	26.40	193.80	94.74	0.30
4505.00	67.00	4371.52	517.05	26.40	193.80	83.49	0.30
4506.00	68.00	4372.41	517.41	26.40	193.80	85.63	0.30
4507.00	69.00	4373.30	517.78	26.40	193.80	82.86	0.30
4508.00	70.00	4374.19	518.14	26.40	193.80	80.39	0.30
