~Version Information
VERS.     2.0  :CWLS LOG ASCII STANDARD - VERSION 2.0
WRAP.      NO  :ONE LINE PER DEPTH STEP
#MNEM   .UNIT                      DATA   INFORMATION
#----------------------------------------------------
~Well Information Block
 STRT   .F                      1650.00   :Start Depth
 STOP   .F                      5754.00   :Stop Depth
 STEP   .F                         1.00   :Step Value
 NULL   .                       -9999.0   :Null Value
 COMP   .              White Oak Energy   :COMPANY
 WELL   .             HC Cockburn #196H   :WELL
  FLD   .                                 :FIELD
  LOC   .                       Wharton   :LOCATION
 CNTY   .                       Wharton   :COUNTY
 STAT   .                         Texas   :STATE
 CTRY   .                           USA   :COUNTRY
 SRVC   . Supreme Source Energy Services Inc.   :SERVICE COMPANY
 DATE   .                    01/08/2018   :LOG DATE
  API   .                  42-481-35422   :API NUMBER
ELEVKB   .F                         18.8   :Elevation KB
ELEVDF   .F                           71   :Elevation DF
ELEVGL   .F                         89.8   :Elevation GL
# MNEM   .UNIT    DATA   INFORMATION
#----------------------------------------
~Curve Information
   DEP   .F             :Depth
  gama   .API           :Gamma
   tvd   .ft            :TVD
    vs   .ft            :VS
   Inc   .0             :Inclination
   Azm   .0             :Azimuth
   ROP   .0             :ROP
   gas   .Pct           :Gas Avg
#   DEP      gama       tvd        vs       Inc       Azm       ROP       gas
#------------------------------------------------------------------------------
~ASCII LOG DATA SECTION
# ...
2249.00	65.00	2248.74	17.01	1.41	230.30	50.28	-9999.00
2250.00	70.00	2249.74	17.01	1.41	230.30	74.62	-9999.00
2251.00	77.00	2250.74	17.02	1.41	230.30	46.81	-9999.00
2252.00	76.00	2251.74	17.02	1.41	230.30	123.17	-9999.00
2253.00	75.00	2252.74	17.03	1.41	230.30	124.45	-9999.00
2254.00	68.00	2253.74	17.04	1.41	230.30	103.31	-9999.00
2255.00	65.00	2254.74	17.04	1.41	230.30	131.20	-9999.00
2256.00	58.00	2255.74	17.05	1.41	230.30	100.69	-9999.00
2257.00	52.00	2256.74	17.06	1.41	230.30	104.94	-9999.00
2258.00	51.00	2257.74	17.06	1.41	230.30	81.86	-9999.00
2259.00	45.00	2258.74	17.07	1.41	230.30	101.24	-9999.00
2260.00	43.00	2259.74	17.08	1.41	230.30	120.72	-9999.00
2261.00	43.00	2260.74	17.08	1.41	230.30	174.18	-9999.00
2262.00	41.00	2261.74	17.09	1.41	230.30	237.52	-9999.00
2263.00	40.00	2262.74	17.10	1.41	230.30	234.37	-9999.00
2264.00	36.00	2263.74	17.10	1.41	230.30	217.33	-9999.00
2265.00	40.00	2264.74	17.11	1.41	230.30	217.10	-9999.00
2266.00	36.00	2265.74	17.11	1.41	230.30	216.53	-9999.00
2267.00	43.00	2266.74	17.12	1.41	230.30	217.00	-9999.00
2268.00	37.00	2267.74	17.13	1.41	230.30	216.95	-9999.00
2269.00	42.00	2268.74	17.13	1.41	230.30	216.77	-9999.00
2270.00	54.00	2269.74	17.14	1.41	230.30	217.78	-9999.00
2271.00	43.00	2270.74	17.15	1.41	230.30	217.25	-9999.00
2272.00	58.00	2271.74	17.15	1.41	230.30	216.71	-9999.00
2273.00	64.00	2272.74	17.16	1.41	230.30	216.73	-9999.00
2274.00	75.00	2273.74	17.17	1.41	230.30	217.05	-9999.00
2275.00	79.00	2274.74	17.17	1.41	230.30	216.82	-9999.00
2276.00	77.00	2275.74	17.18	1.41	230.30	104.66	-9999.00
2277.00	76.00	2276.74	17.19	1.41	230.30	104.64	-9999.00
2278.00	75.00	2277.74	17.19	1.41	230.30	160.08	-9999.00
2279.00	77.00	2278.74	17.20	1.41	230.30	135.38	-9999.00
2280.00	74.00	2279.74	17.21	1.41	230.30	101.26	-9999.00
2281.00	72.00	2280.74	17.21	1.41	230.30	110.83	-9999.00
2282.00	73.00	2281.74	17.22	1.41	230.30	109.87	-9999.00
2283.00	69.00	2282.74	17.22	1.41	230.30	116.36	-9999.00
2284.00	71.00	2283.74	17.23	1.41	230.30	99.80	-9999.00
2285.00	72.00	2284.74	17.24	1.41	230.30	106.91	-9999.00
2286.00	76.00	2285.74	17.24	1.41	230.30	100.64	-9999.00
2287.00	79.00	2286.74	17.25	1.41	230.30	97.44	-9999.00
2288.00	74.00	2287.74	17.26	1.41	230.30	123.51	-9999.00
2289.00	80.00	2288.74	17.26	1.41	230.30	120.92	-9999.00
2290.00	60.00	2289.74	17.27	1.41	230.30	134.86	-9999.00
2291.00	43.00	2290.73	17.28	1.41	230.30	103.81	-9999.00
2292.00	46.00	2291.73	17.28	1.41	230.30	130.29	-9999.00
2293.00	52.00	2292.73	17.29	1.41	230.30	194.90	-9999.00
2294.00	48.00	2293.73	17.30	1.41	230.30	247.77	-9999.00
2295.00	55.00	2294.73	17.30	1.41	230.30	254.15	-9999.00
2296.00	47.00	2295.73	17.31	1.41	230.30	241.96	-9999.00
2297.00	51.00	2296.73	17.32	1.41	230.30	236.80	-9999.00
2298.00	61.00	2297.73	17.32	1.41	230.30	240.48	-9999.00
2299.00	64.00	2298.73	17.33	1.41	230.30	219.97	-9999.00
2300.00	70.00	2299.73	17.33	1.41	230.30	163.94	-9999.00
2301.00	75.00	2300.73	17.34	1.41	230.30	97.95	-9999.00
2302.00	64.00	2301.73	17.35	1.06	229.60	83.21	-9999.00
2303.00	65.00	2302.73	17.35	1.06	229.60	105.52	-9999.00
2304.00	60.00	2303.73	17.36	1.06	229.60	87.91	-9999.00
2305.00	65.00	2304.73	17.36	1.06	229.60	73.77	-9999.00
2306.00	66.00	2305.73	17.37	1.06	229.60	84.34	-9999.00
2307.00	67.00	2306.73	17.37	1.06	229.60	81.84	-9999.00
2308.00	67.00	2307.73	17.38	1.06	229.60	102.07	-9999.00
2309.00	68.00	2308.73	17.39	1.06	229.60	121.61	-9999.00
2310.00	69.00	2309.73	17.39	1.06	229.60	138.84	-9999.00
2311.00	70.00	2310.73	17.40	1.06	229.60	137.31	-9999.00
2312.00	70.00	2311.73	17.40	1.06	229.60	150.04	-9999.00
2313.00	71.00	2312.73	17.41	1.06	229.60	138.86	-9999.00
2314.00	66.00	2313.73	17.41	1.06	229.60	104.39	-9999.00
2315.00	65.00	2314.73	17.42	1.06	229.60	90.38	-9999.00
2316.00	52.00	2315.73	17.42	1.06	229.60	73.25	-9999.00
2317.00	52.00	2316.73	17.43	1.06	229.60	79.38	-9999.00
2318.00	46.00	2317.73	17.43	1.06	229.60	80.35	-9999.00
2319.00	44.00	2318.73	17.44	1.06	229.60	41.00	-9999.00
2320.00	41.00	2319.73	17.44	1.06	229.60	110.93	-9999.00
2321.00	37.00	2320.73	17.45	1.06	229.60	146.09	-9999.00
2322.00	55.00	2321.73	17.46	1.06	229.60	233.64	-9999.00
2323.00	42.00	2322.73	17.46	1.06	229.60	238.19	-9999.00
2324.00	44.00	2323.73	17.47	1.06	229.60	219.01	-9999.00
2325.00	38.00	2324.73	17.47	1.06	229.60	175.19	-9999.00
2326.00	41.00	2325.73	17.48	1.06	229.60	220.58	-9999.00
2327.00	50.00	2326.73	17.48	1.06	229.60	218.02	-9999.00
2328.00	46.00	2327.73	17.49	1.06	229.60	217.38	-9999.00
2329.00	44.00	2328.73	17.49	1.06	229.60	213.29	-9999.00
2330.00	65.00	2329.73	17.50	1.06	229.60	215.53	-9999.00
2331.00	74.00	2330.73	17.50	1.06	229.60	212.73	-9999.00
2332.00	76.00	2331.73	17.51	1.06	229.60	215.62	-9999.00
2333.00	73.00	2332.73	17.51	1.06	229.60	112.75	-9999.00
2334.00	72.00	2333.73	17.52	1.06	229.60	98.05	-9999.00
2335.00	70.00	2334.73	17.53	1.06	229.60	107.51	-9999.00
2336.00	66.00	2335.73	17.53	1.06	229.60	76.93	-9999.00
2337.00	76.00	2336.73	17.54	1.06	229.60	75.11	-9999.00
2338.00	77.00	2337.73	17.54	1.06	229.60	88.18	-9999.00
2339.00	75.00	2338.73	17.55	1.06	229.60	103.73	-9999.00
2340.00	69.00	2339.73	17.55	1.06	229.60	113.45	-9999.00
2341.00	74.00	2340.73	17.56	1.06	229.60	97.14	-9999.00
2342.00	76.00	2341.73	17.56	1.06	229.60	81.12	-9999.00
2343.00	64.00	2342.73	17.57	1.06	229.60	81.11	-9999.00
2344.00	65.00	2343.73	17.57	1.06	229.60	103.21	-9999.00
2345.00	58.00	2344.72	17.58	1.06	229.60	70.78	-9999.00
2346.00	48.00	2345.72	17.58	1.06	229.60	70.54	-9999.00
2347.00	58.00	2346.72	17.59	1.06	229.60	91.84	-9999.00
2348.00	55.00	2347.72	17.60	1.06	229.60	85.67	-9999.00
2349.00	53.00	2348.72	17.60	1.06	229.60	113.25	-9999.00
2350.00	46.00	2349.72	17.61	1.06	229.60	87.62	-9999.00
2351.00	45.00	2350.72	17.61	1.06	229.60	95.50	-9999.00
2352.00	43.00	2351.72	17.62	1.06	229.60	164.16	-9999.00
2353.00	41.00	2352.72	17.62	1.06	229.60	248.82	-9999.00
2354.00	49.00	2353.72	17.63	1.06	229.60	318.16	-9999.00
2355.00	47.00	2354.72	17.63	1.06	229.60	360.28	-9999.00
2356.00	63.00	2355.72	17.64	1.06	229.60	410.78	-9999.00
2357.00	71.00	2356.72	17.64	1.06	229.60	327.84	-9999.00
2358.00	73.00	2357.72	17.65	1.06	229.60	315.42	-9999.00
2359.00	76.00	2358.72	17.65	1.06	229.60	295.35	-9999.00
2360.00	74.00	2359.72	17.66	1.06	229.60	165.61	-9999.00
2361.00	65.00	2360.72	17.67	1.06	229.60	160.89	-9999.00
2362.00	75.00	2361.72	17.67	1.06	229.60	145.42	-9999.00
2363.00	70.00	2362.72	17.68	1.06	229.60	130.72	-9999.00
2364.00	76.00	2363.72	17.68	1.06	229.60	102.01	-9999.00
2365.00	74.00	2364.72	17.69	1.06	231.40	94.22	-9999.00
2366.00	74.00	2365.72	17.69	1.06	231.40	128.87	-9999.00
2367.00	73.00	2366.72	17.70	1.06	231.40	127.72	-9999.00
2368.00	72.00	2367.72	17.70	1.06	231.40	153.29	-9999.00
2369.00	72.00	2368.72	17.71	1.06	231.40	91.67	-9999.00
2370.00	72.00	2369.72	17.71	1.06	231.40	99.58	-9999.00
2371.00	73.00	2370.72	17.72	1.06	231.40	99.41	-9999.00
2372.00	74.00	2371.72	17.72	1.06	231.40	102.50	-9999.00
2373.00	75.00	2372.72	17.73	1.06	231.40	92.90	-9999.00
2374.00	65.00	2373.72	17.74	1.06	231.40	64.48	-9999.00
2375.00	62.00	2374.72	17.74	1.06	231.40	76.82	-9999.00
2376.00	69.00	2375.72	17.75	1.06	231.40	81.55	-9999.00
2377.00	65.00	2376.72	17.75	1.06	231.40	105.11	-9999.00
2378.00	64.00	2377.72	17.76	1.06	231.40	84.98	-9999.00
2379.00	54.00	2378.72	17.76	1.06	231.40	98.54	-9999.00
2380.00	58.00	2379.72	17.77	1.06	231.40	87.41	-9999.00
2381.00	68.00	2380.72	17.77	1.06	231.40	98.47	-9999.00
2382.00	65.00	2381.72	17.78	1.06	231.40	114.03	-9999.00
2383.00	79.00	2382.72	17.78	1.06	231.40	110.99	-9999.00
2384.00	71.00	2383.72	17.79	1.06	231.40	110.53	-9999.00
2385.00	73.00	2384.72	17.79	1.06	231.40	98.36	-9999.00
2386.00	65.00	2385.71	17.80	1.06	231.40	66.29	-9999.00
2387.00	70.00	2386.71	17.80	1.06	231.40	62.25	-9999.00
2388.00	64.00	2387.71	17.81	1.06	231.40	45.61	-9999.00
2389.00	71.00	2388.71	17.82	1.06	231.40	6.58	-9999.00
2390.00	73.00	2389.71	17.82	1.06	231.40	76.89	-9999.00
2391.00	67.00	2390.71	17.83	1.06	231.40	81.76	-9999.00
2392.00	64.00	2391.71	17.83	1.06	231.40	98.38	-9999.00
