~Version Information
VERS.     2.0  :CWLS LOG ASCII STANDARD - VERSION 2.0
WRAP.      NO  :ONE LINE PER DEPTH STEP
#MNEM   .UNIT                      DATA   INFORMATION
#----------------------------------------------------
~Well Information Block
 STRT   .F                      1650.00   :Start Depth
 STOP   .F                      5754.00   :Stop Depth
 STEP   .F                         1.00   :Step Value
 NULL   .                       -9999.0   :Null Value
 COMP   .              White Oak Energy   :COMPANY
 WELL   .             HC Cockburn #196H   :WELL
  FLD   .                                 :FIELD
  LOC   .                       Wharton   :LOCATION
 CNTY   .                       Wharton   :COUNTY
 STAT   .                         Texas   :STATE
 CTRY   .                           USA   :COUNTRY
 SRVC   . Supreme Source Energy Services Inc.   :SERVICE COMPANY
 DATE   .                    01/08/2018   :LOG DATE
  API   .                  42-481-35422   :API NUMBER
ELEVKB   .F                         18.8   :Elevation KB
ELEVDF   .F                           71   :Elevation DF
ELEVGL   .F                         89.8   :Elevation GL
# MNEM   .UNIT    DATA   INFORMATION
#----------------------------------------
~Curve Information
   DEP   .F             :Depth
  gama   .API           :Gamma
   tvd   .ft            :TVD
    vs   .ft            :VS
   Inc   .0             :Inclination
   Azm   .0             :Azimuth
   ROP   .0             :ROP
   gas   .Pct           :Gas Avg
#   DEP      gama       tvd        vs       Inc       Azm       ROP       gas
#------------------------------------------------------------------------------
~ASCII LOG DATA SECTION
# ...
4059.00	47.00	3971.80	359.42	27.48	193.43	64.99	0.30
4060.00	47.00	3972.69	359.79	27.48	193.43	55.28	0.30
4061.00	53.00	3973.58	360.16	27.48	193.43	56.20	0.30
4062.00	54.00	3974.47	360.53	27.12	193.78	56.27	0.30
4063.00	50.00	3975.36	360.89	27.12	193.78	51.27	0.30
4064.00	51.00	3976.25	361.26	27.12	193.78	55.43	0.30
4065.00	53.00	3977.14	361.62	27.12	193.78	63.41	0.30
4066.00	53.00	3978.03	361.98	27.12	193.78	70.85	0.30
4067.00	54.00	3978.93	362.35	27.12	193.78	63.02	0.30
4068.00	60.00	3979.82	362.71	27.12	193.78	68.32	0.30
4069.00	57.00	3980.71	363.08	27.12	193.78	75.78	0.30
4070.00	55.00	3981.60	363.44	27.12	193.78	44.44	0.30
4071.00	47.00	3982.49	363.80	27.12	193.78	74.38	0.30
4072.00	53.00	3983.38	364.17	27.12	193.78	70.70	0.30
4073.00	58.00	3984.27	364.53	27.12	193.78	70.08	0.30
4074.00	65.00	3985.17	364.90	27.12	193.78	44.86	0.30
4075.00	64.00	3986.06	365.26	27.12	193.78	42.35	0.30
4076.00	58.00	3986.95	365.63	27.12	193.78	55.96	0.30
4077.00	57.00	3987.84	365.99	27.12	193.78	64.50	0.30
4078.00	53.00	3988.73	366.35	27.12	193.78	79.66	0.30
4079.00	54.00	3989.62	366.72	27.12	193.78	69.71	0.30
4080.00	56.00	3990.51	367.08	27.12	193.78	51.29	0.30
4081.00	53.00	3991.41	367.45	27.12	193.78	40.92	0.30
4082.00	62.00	3992.30	367.81	27.12	193.78	47.45	0.30
4083.00	49.00	3993.19	368.18	27.12	193.78	46.65	0.30
4084.00	54.00	3994.08	368.54	27.12	193.78	48.06	0.30
4085.00	66.00	3994.97	368.90	27.12	193.78	49.84	0.30
4086.00	59.00	3995.86	369.27	27.12	193.78	35.31	0.30
4087.00	57.00	3996.76	369.63	27.12	193.78	54.96	0.30
4088.00	53.00	3997.65	370.00	27.12	193.78	142.37	0.30
4089.00	46.00	3998.54	370.36	27.12	193.78	117.20	0.30
4090.00	54.00	3999.43	370.72	27.12	193.78	112.23	0.30
4091.00	62.00	4000.32	371.09	27.12	193.78	104.70	0.30
4092.00	63.00	4001.21	371.45	27.12	193.78	70.44	0.30
4093.00	65.00	4002.10	371.82	27.12	193.78	84.95	0.30
4094.00	58.00	4003.00	372.18	27.12	193.78	94.64	0.30
4095.00	59.00	4003.89	372.55	27.12	193.78	78.70	0.30
4096.00	64.00	4004.78	372.91	27.12	193.78	84.34	0.30
4097.00	61.00	4005.67	373.27	27.12	193.78	91.90	0.30
4098.00	66.00	4006.56	373.64	27.12	193.78	100.45	0.30
4099.00	60.00	4007.45	374.00	27.12	193.78	84.77	0.30
4100.00	68.00	4008.34	374.37	27.12	193.78	63.95	0.30
4101.00	77.00	4009.24	374.73	27.12	193.78	86.63	0.30
4102.00	70.00	4010.13	375.09	27.12	193.78	107.20	0.30
4103.00	75.00	4011.02	375.46	27.12	193.78	123.95	0.30
4104.00	68.00	4011.91	375.82	27.12	193.78	98.00	0.30
4105.00	79.00	4012.80	376.19	27.12	193.78	99.68	0.30
4106.00	78.00	4013.69	376.55	27.12	193.78	99.34	0.30
4107.00	81.00	4014.58	376.92	27.12	193.78	116.79	0.30
4108.00	66.00	4015.48	377.28	27.12	193.78	121.95	0.30
4109.00	68.00	4016.37	377.64	27.12	193.78	105.79	0.30
4110.00	70.00	4017.26	378.01	27.12	193.78	85.98	0.30
4111.00	65.00	4018.15	378.37	27.12	193.78	63.61	0.30
4112.00	62.00	4019.04	378.74	27.12	193.78	225.96	0.30
4113.00	65.00	4019.93	379.10	27.12	193.78	139.78	0.30
4114.00	76.00	4020.82	379.46	27.12	193.78	110.33	0.30
4115.00	66.00	4021.72	379.83	27.12	193.78	112.33	0.30
4116.00	62.00	4022.61	380.19	27.12	193.78	114.63	0.30
4117.00	58.00	4023.50	380.56	27.12	193.78	129.55	0.30
4118.00	49.00	4024.39	380.92	27.12	193.78	97.37	0.30
4119.00	40.00	4025.28	381.29	27.12	193.78	85.33	0.30
4120.00	49.00	4026.17	381.65	27.12	193.78	71.36	0.30
4121.00	64.00	4027.06	382.01	27.12	193.78	63.45	0.30
4122.00	58.00	4027.96	382.38	27.12	193.78	65.50	0.30
4123.00	50.00	4028.85	382.74	27.12	193.78	110.62	0.30
4124.00	47.00	4029.74	383.11	27.12	193.78	101.30	0.30
4125.00	47.00	4030.63	383.47	27.12	193.78	88.85	0.30
4126.00	50.00	4031.52	383.84	26.77	194.13	97.57	0.30
4127.00	61.00	4032.41	384.20	26.77	194.13	68.37	0.30
4128.00	63.00	4033.31	384.56	26.77	194.13	107.26	0.30
4129.00	51.00	4034.20	384.92	26.77	194.13	107.32	0.30
4130.00	58.00	4035.09	385.28	26.77	194.13	97.04	0.30
4131.00	58.00	4035.99	385.64	26.77	194.13	103.26	0.30
4132.00	58.00	4036.88	386.00	26.77	194.13	43.58	0.30
4133.00	65.00	4037.77	386.36	26.77	194.13	169.15	0.30
4134.00	61.00	4038.66	386.72	26.77	194.13	87.29	0.30
4135.00	66.00	4039.56	387.09	26.77	194.13	87.07	0.30
4136.00	68.00	4040.45	387.45	26.77	194.13	127.86	0.30
4137.00	61.00	4041.34	387.81	26.77	194.13	155.56	0.30
4138.00	68.00	4042.24	388.17	26.77	194.13	134.44	0.30
4139.00	65.00	4043.13	388.53	26.77	194.13	122.01	0.30
4140.00	72.00	4044.02	388.89	26.77	194.13	65.99	0.30
4141.00	74.00	4044.91	389.25	26.77	194.13	166.45	0.30
4142.00	65.00	4045.81	389.61	26.77	194.13	157.88	0.30
4143.00	69.00	4046.70	389.98	26.77	194.13	157.07	0.30
4144.00	70.00	4047.59	390.34	26.77	194.13	157.16	0.30
4145.00	65.00	4048.48	390.70	26.77	194.13	164.47	0.30
4146.00	58.00	4049.38	391.06	26.77	194.13	137.54	0.30
4147.00	64.00	4050.27	391.42	26.77	194.13	143.42	0.30
4148.00	65.00	4051.16	391.78	26.77	194.13	132.08	0.30
4149.00	55.00	4052.06	392.14	26.77	194.13	143.75	0.30
4150.00	62.00	4052.95	392.50	26.77	194.13	148.22	0.30
4151.00	66.00	4053.84	392.86	26.77	194.13	162.47	0.30
4152.00	47.00	4054.73	393.23	26.77	194.13	131.85	0.30
4153.00	49.00	4055.63	393.59	26.77	194.13	208.18	0.30
4154.00	43.00	4056.52	393.95	26.77	194.13	199.52	0.30
4155.00	49.00	4057.41	394.31	26.77	194.13	91.98	0.30
4156.00	58.00	4058.31	394.67	26.77	194.13	75.43	0.30
4157.00	65.00	4059.20	395.03	26.77	194.13	68.83	0.30
4158.00	56.00	4060.09	395.39	26.77	194.13	68.11	0.30
4159.00	54.00	4060.98	395.75	26.77	194.13	69.58	0.30
4160.00	55.00	4061.88	396.12	26.77	194.13	81.41	0.30
4161.00	55.00	4062.77	396.48	26.77	194.13	88.42	0.30
4162.00	54.00	4063.66	396.84	26.77	194.13	91.46	0.30
4163.00	51.00	4064.56	397.20	26.77	194.13	88.49	0.30
4164.00	60.00	4065.45	397.56	26.77	194.13	80.77	0.30
4165.00	59.00	4066.34	397.92	26.77	194.13	95.52	0.30
4166.00	61.00	4067.23	398.28	26.77	194.13	88.16	0.30
4167.00	59.00	4068.13	398.64	26.77	194.13	102.79	0.30
4168.00	54.00	4069.02	399.00	26.77	194.13	106.32	0.30
4169.00	57.00	4069.91	399.37	26.77	194.13	107.39	0.30
4170.00	60.00	4070.81	399.73	26.77	194.13	102.94	0.30
4171.00	59.00	4071.70	400.09	26.77	194.13	106.91	0.30
4172.00	62.00	4072.59	400.45	26.77	194.13	79.19	0.30
4173.00	60.00	4073.48	400.81	26.77	194.13	87.83	0.30
4174.00	64.00	4074.38	401.17	26.77	194.13	36.60	0.30
4175.00	56.00	4075.27	401.53	26.77	194.13	138.80	0.30
4176.00	55.00	4076.16	401.89	26.77	194.13	101.50	0.30
4177.00	55.00	4077.06	402.26	26.77	194.13	148.23	0.30
4178.00	54.00	4077.95	402.62	26.77	194.13	128.84	0.30
4179.00	58.00	4078.84	402.98	26.77	194.13	87.32	0.30
4180.00	58.00	4079.73	403.34	26.77	194.13	79.76	0.30
4181.00	60.00	4080.63	403.70	26.77	194.13	55.28	0.30
4182.00	58.00	4081.52	404.06	26.77	194.13	75.61	0.30
4183.00	54.00	4082.41	404.42	26.77	194.13	59.36	0.30
4184.00	61.00	4083.30	404.78	26.77	194.13	83.16	0.30
4185.00	58.00	4084.20	405.14	26.77	194.13	112.47	0.30
4186.00	60.00	4085.09	405.51	26.77	194.13	99.94	0.30
4187.00	64.00	4085.98	405.87	26.77	194.13	88.17	0.30
4188.00	73.00	4086.88	406.23	26.77	194.13	68.29	0.30
4189.00	64.00	4087.77	406.59	26.77	194.13	79.58	0.30
4190.00	61.00	4088.66	406.95	26.77	194.13	91.30	0.30
4191.00	66.00	4089.56	407.30	26.77	194.13	92.26	0.30
4192.00	59.00	4090.45	407.66	26.77	194.13	99.61	0.30
4193.00	65.00	4091.35	408.02	26.77	194.13	102.96	0.30
4194.00	58.00	4092.24	408.38	26.77	194.13	110.05	0.30
4195.00	58.00	4093.13	408.73	26.77	194.13	109.90	0.30
4196.00	65.00	4094.03	409.09	26.77	194.13	110.03	0.30
4197.00	62.00	4094.92	409.45	26.77	194.13	117.35	0.30
4198.00	59.00	4095.82	409.81	26.77	194.13	114.68	0.30
4199.00	58.00	4096.71	410.16	26.77	194.13	123.11	0.30
4200.00	62.00	4097.60	410.52	26.77	194.13	127.62	0.30
4201.00	53.00	4098.50	410.88	26.77	194.13	131.63	0.30
4202.00	56.00	4099.39	411.23	26.77	194.13	138.84	0.30
4203.00	54.00	4100.29	411.59	26.77	194.13	147.67	0.30
4204.00	65.00	4101.18	411.95	26.77	194.13	157.44	0.30
4205.00	63.00	4102.08	412.31	26.77	194.13	152.50	0.30
4206.00	68.00	4102.97	412.66	26.77	194.13	162.96	0.30
4207.00	61.00	4103.86	413.02	26.77	194.13	165.11	0.30
4208.00	58.00	4104.76	413.38	26.77	194.13	169.73	0.30
