~Version Information
VERS.     2.0  :CWLS LOG ASCII STANDARD - VERSION 2.0
WRAP.      NO  :ONE LINE PER DEPTH STEP
#MNEM   .UNIT                      DATA   INFORMATION
#----------------------------------------------------
~Well Information Block
 STRT   .F                      1650.00   :Start Depth
 STOP   .F                      5754.00   :Stop Depth
 STEP   .F                         1.00   :Step Value
 NULL   .                       -9999.0   :Null Value
 COMP   .              White Oak Energy   :COMPANY
 WELL   .             HC Cockburn #196H   :WELL
  FLD   .                                 :FIELD
  LOC   .                       Wharton   :LOCATION
 CNTY   .                       Wharton   :COUNTY
 STAT   .                         Texas   :STATE
 CTRY   .                           USA   :COUNTRY
 SRVC   . Supreme Source Energy Services Inc.   :SERVICE COMPANY
 DATE   .                    01/08/2018   :LOG DATE
  API   .                  42-481-35422   :API NUMBER
ELEVKB   .F                         18.8   :Elevation KB
ELEVDF   .F                           71   :Elevation DF
ELEVGL   .F                         89.8   :Elevation GL
# MNEM   .UNIT    DATA   INFORMATION
#----------------------------------------
~Curve Information
   DEP   .F             :Depth
  gama   .API           :Gamma
   tvd   .ft            :TVD
    vs   .ft            :VS
   Inc   .0             :Inclination
   Azm   .0             :Azimuth
   ROP   .0             :ROP
   gas   .Pct           :Gas Avg
#   DEP      gama       tvd        vs       Inc       Azm       ROP       gas
#------------------------------------------------------------------------------
~ASCII LOG DATA SECTION
# ...
3908.00	58.00	3837.92	303.06	27.83	193.78	98.26	0.30
3909.00	59.00	3838.81	303.44	27.83	193.78	95.51	0.30
3910.00	33.00	3839.69	303.81	27.83	193.78	98.63	0.20
3911.00	81.00	3840.58	304.19	27.83	193.78	84.72	0.20
3912.00	73.00	3841.46	304.57	27.83	193.78	96.33	0.20
3913.00	70.00	3842.35	304.94	27.83	193.78	97.20	0.20
3914.00	65.00	3843.23	305.32	27.83	193.78	65.07	0.20
3915.00	65.00	3844.11	305.69	27.83	193.78	72.41	0.30
3916.00	35.00	3845.00	306.07	27.83	193.78	73.41	0.30
3917.00	78.00	3845.88	306.45	27.83	193.78	60.96	0.30
3918.00	71.00	3846.77	306.82	27.83	193.78	86.51	0.30
3919.00	68.00	3847.65	307.20	27.83	193.78	106.60	0.30
3920.00	75.00	3848.54	307.57	27.83	193.78	135.60	0.30
3921.00	81.00	3849.42	307.95	27.83	193.78	159.95	0.30
3922.00	77.00	3850.30	308.33	27.83	193.78	159.30	0.30
3923.00	80.00	3851.19	308.70	27.83	193.78	151.16	0.30
3924.00	59.00	3852.07	309.08	27.83	193.78	168.28	0.30
3925.00	71.00	3852.96	309.45	27.83	193.78	64.74	0.30
3926.00	76.00	3853.84	309.83	27.83	193.78	218.99	0.30
3927.00	79.00	3854.73	310.21	27.83	193.78	201.07	0.30
3928.00	71.00	3855.61	310.58	27.83	193.78	160.41	0.30
3929.00	72.00	3856.49	310.96	27.83	193.78	183.44	0.30
3930.00	76.00	3857.38	311.34	27.83	193.78	213.20	0.30
3931.00	74.00	3858.26	311.71	27.83	193.78	236.60	0.30
3932.00	68.00	3859.15	312.09	27.83	193.78	237.87	0.30
3933.00	64.00	3860.03	312.46	27.83	193.78	213.44	0.30
3934.00	58.00	3860.92	312.84	27.83	193.78	102.28	0.30
3935.00	60.00	3861.80	313.22	27.83	193.78	106.44	0.30
3936.00	56.00	3862.69	313.59	27.83	193.78	118.20	0.30
3937.00	57.00	3863.57	313.97	27.83	193.78	114.00	0.30
3938.00	60.00	3864.46	314.34	27.83	193.78	100.68	0.30
3939.00	59.00	3865.34	314.72	27.83	193.78	101.12	0.30
3940.00	62.00	3866.23	315.09	27.83	193.78	97.25	0.30
3941.00	59.00	3867.11	315.47	27.83	193.78	111.08	0.30
3942.00	60.00	3868.00	315.84	27.83	193.78	96.71	0.30
3943.00	67.00	3868.88	316.22	27.83	193.78	84.84	0.30
3944.00	65.00	3869.77	316.59	27.83	193.78	91.31	0.30
3945.00	61.00	3870.66	316.97	27.83	193.78	97.71	0.30
3946.00	61.00	3871.54	317.34	27.83	193.78	106.68	0.30
3947.00	62.00	3872.43	317.71	27.83	193.78	91.10	0.30
3948.00	68.00	3873.31	318.09	27.83	193.78	95.96	0.30
3949.00	65.00	3874.20	318.46	27.83	193.78	86.96	0.30
3950.00	63.00	3875.08	318.84	27.83	193.78	89.86	0.30
3951.00	66.00	3875.97	319.21	27.83	193.78	96.19	0.30
3952.00	61.00	3876.86	319.59	27.83	193.78	94.29	0.30
3953.00	67.00	3877.74	319.96	27.83	193.78	98.58	0.30
3954.00	60.00	3878.63	320.34	27.83	193.78	84.93	0.30
3955.00	66.00	3879.51	320.71	27.83	193.78	83.55	0.30
3956.00	58.00	3880.40	321.09	27.83	193.78	70.62	0.30
3957.00	68.00	3881.28	321.46	27.83	193.78	66.97	0.30
3958.00	61.00	3882.17	321.84	27.83	193.78	58.77	0.30
3959.00	63.00	3883.06	322.21	27.83	193.78	56.49	0.30
3960.00	63.00	3883.94	322.59	27.83	193.78	66.76	0.30
3961.00	59.00	3884.83	322.96	27.83	193.78	65.45	0.30
3962.00	62.00	3885.71	323.34	27.83	193.78	67.43	0.30
3963.00	60.00	3886.60	323.71	27.83	193.78	72.98	0.30
3964.00	64.00	3887.48	324.08	27.83	193.78	74.18	0.30
3965.00	61.00	3888.37	324.46	27.83	193.78	85.33	0.40
3966.00	56.00	3889.26	324.83	27.83	193.78	76.47	0.30
3967.00	62.00	3890.14	325.21	27.83	193.78	73.97	0.30
3968.00	56.00	3891.03	325.58	27.83	193.78	76.65	0.30
3969.00	57.00	3891.91	325.96	27.83	193.78	73.90	0.30
3970.00	56.00	3892.80	326.33	27.83	193.78	70.94	0.30
3971.00	56.00	3893.69	326.71	27.83	193.78	76.31	0.30
3972.00	54.00	3894.57	327.08	27.83	193.78	82.88	0.30
3973.00	55.00	3895.46	327.46	27.83	193.78	84.19	0.30
3974.00	58.00	3896.34	327.83	27.83	193.78	81.23	0.30
3975.00	55.00	3897.23	328.21	27.83	193.78	80.88	0.30
3976.00	63.00	3898.11	328.58	27.83	193.78	83.97	0.30
3977.00	59.00	3899.00	328.96	27.83	193.78	86.91	0.30
3978.00	57.00	3899.89	329.33	27.83	193.78	71.83	0.30
3979.00	56.00	3900.77	329.71	27.83	193.78	84.51	0.30
3980.00	61.00	3901.66	330.08	27.83	193.78	88.49	0.30
3981.00	58.00	3902.54	330.45	27.83	193.78	87.77	0.30
3982.00	61.00	3903.43	330.83	27.83	193.78	94.48	0.30
3983.00	62.00	3904.31	331.20	27.83	193.78	73.31	0.30
3984.00	61.00	3905.20	331.58	27.83	193.78	62.02	0.30
3985.00	55.00	3906.09	331.95	27.83	193.78	78.39	0.30
3986.00	59.00	3906.97	332.33	27.83	193.78	79.77	0.30
3987.00	57.00	3907.86	332.70	27.83	193.78	44.61	0.30
3988.00	58.00	3908.74	333.08	27.83	193.78	71.08	0.30
3989.00	60.00	3909.63	333.45	27.83	193.78	74.17	0.30
3990.00	60.00	3910.51	333.83	27.83	193.78	73.92	0.40
3991.00	60.00	3911.40	334.20	27.83	193.78	77.88	0.40
3992.00	68.00	3912.29	334.58	27.83	193.78	75.36	0.40
3993.00	59.00	3913.17	334.95	27.83	193.78	94.41	0.40
3994.00	61.00	3914.06	335.33	27.83	193.78	80.57	0.40
3995.00	63.00	3914.94	335.70	27.83	193.78	91.85	0.40
3996.00	67.00	3915.83	336.08	27.83	193.78	85.73	0.40
3997.00	72.00	3916.71	336.45	27.83	193.78	88.23	0.40
3998.00	63.00	3917.60	336.82	27.83	193.78	80.04	0.40
3999.00	62.00	3918.49	337.20	27.48	193.43	87.69	0.40
4000.00	64.00	3919.38	337.57	27.48	193.43	87.66	0.40
4001.00	63.00	3920.26	337.94	27.48	193.43	99.24	0.40
4002.00	72.00	3921.15	338.31	27.48	193.43	71.80	0.40
4003.00	61.00	3922.04	338.68	27.48	193.43	93.51	0.40
4004.00	60.00	3922.93	339.05	27.48	193.43	95.89	0.40
4005.00	56.00	3923.82	339.42	27.48	193.43	109.54	0.40
4006.00	55.00	3924.71	339.79	27.48	193.43	103.96	0.40
4007.00	54.00	3925.60	340.16	27.48	193.43	97.04	0.40
4008.00	75.00	3926.48	340.53	27.48	193.43	69.45	0.40
4009.00	87.00	3927.37	340.90	27.48	193.43	50.11	0.40
4010.00	70.00	3928.26	341.27	27.48	193.43	91.12	0.30
4011.00	69.00	3929.15	341.64	27.48	193.43	102.27	0.30
4012.00	54.00	3930.04	342.01	27.48	193.43	81.28	0.30
4013.00	63.00	3930.93	342.38	27.48	193.43	112.65	0.30
4014.00	65.00	3931.82	342.75	27.48	193.43	119.24	0.30
4015.00	63.00	3932.70	343.12	27.48	193.43	102.27	0.30
4016.00	72.00	3933.59	343.49	27.48	193.43	167.30	0.30
4017.00	76.00	3934.48	343.86	27.48	193.43	136.16	0.30
4018.00	77.00	3935.37	344.23	27.48	193.43	151.13	0.30
4019.00	71.00	3936.26	344.61	27.48	193.43	181.56	0.30
4020.00	54.00	3937.15	344.98	27.48	193.43	198.57	0.30
4021.00	61.00	3938.04	345.35	27.48	193.43	229.61	0.30
4022.00	56.00	3938.92	345.72	27.48	193.43	228.07	0.30
4023.00	65.00	3939.81	346.09	27.48	193.43	87.24	0.30
4024.00	58.00	3940.70	346.46	27.48	193.43	113.35	0.30
4025.00	66.00	3941.59	346.83	27.48	193.43	92.98	0.30
4026.00	58.00	3942.48	347.20	27.48	193.43	81.63	0.30
4027.00	56.00	3943.37	347.57	27.48	193.43	73.45	0.30
4028.00	59.00	3944.26	347.94	27.48	193.43	88.96	0.30
4029.00	58.00	3945.14	348.31	27.48	193.43	74.08	0.30
4030.00	54.00	3946.03	348.68	27.48	193.43	68.07	0.30
4031.00	58.00	3946.92	349.05	27.48	193.43	76.86	0.30
4032.00	52.00	3947.81	349.42	27.48	193.43	75.37	0.30
4033.00	56.00	3948.70	349.79	27.48	193.43	72.98	0.30
4034.00	55.00	3949.59	350.16	27.48	193.43	79.94	0.30
4035.00	56.00	3950.48	350.53	27.48	193.43	83.19	0.30
4036.00	55.00	3951.36	350.90	27.48	193.43	91.33	0.30
4037.00	52.00	3952.25	351.27	27.48	193.43	93.95	0.30
4038.00	58.00	3953.14	351.64	27.48	193.43	95.86	0.30
4039.00	59.00	3954.03	352.01	27.48	193.43	97.25	0.30
4040.00	54.00	3954.92	352.38	27.48	193.43	76.08	0.40
4041.00	57.00	3955.81	352.75	27.48	193.43	70.80	0.40
4042.00	55.00	3956.70	353.12	27.48	193.43	82.42	0.40
4043.00	54.00	3957.59	353.49	27.48	193.43	85.38	0.40
4044.00	54.00	3958.47	353.86	27.48	193.43	88.00	0.40
4045.00	56.00	3959.36	354.23	27.48	193.43	91.60	0.40
4046.00	58.00	3960.25	354.60	27.48	193.43	98.73	0.40
4047.00	58.00	3961.14	354.97	27.48	193.43	92.29	0.40
4048.00	51.00	3962.03	355.34	27.48	193.43	79.62	0.40
4049.00	57.00	3962.92	355.71	27.48	193.43	95.51	0.30
4050.00	56.00	3963.81	356.08	27.48	193.43	151.20	0.30
4051.00	50.00	3964.69	356.45	27.48	193.43	130.54	0.30
4052.00	47.00	3965.58	356.82	27.48	193.43	129.42	0.30
4053.00	51.00	3966.47	357.19	27.48	193.43	111.48	0.30
4054.00	49.00	3967.36	357.56	27.48	193.43	92.89	0.30
4055.00	49.00	3968.25	357.94	27.48	193.43	80.36	0.30
4056.00	48.00	3969.14	358.31	27.48	193.43	83.96	0.30
4057.00	44.00	3970.03	358.68	27.48	193.43	95.38	0.30
4058.00	48.00	3970.91	359.05	27.48	193.43	63.77	0.30
