~Version Information
VERS.     2.0  :CWLS LOG ASCII STANDARD - VERSION 2.0
WRAP.      NO  :ONE LINE PER DEPTH STEP
#MNEM   .UNIT                      DATA   INFORMATION
#----------------------------------------------------
~Well Information Block
 STRT   .F                      1650.00   :Start Depth
 STOP   .F                      5754.00   :Stop Depth
 STEP   .F                         1.00   :Step Value
 NULL   .                       -9999.0   :Null Value
 COMP   .              White Oak Energy   :COMPANY
 WELL   .             HC Cockburn #196H   :WELL
  FLD   .                                 :FIELD
  LOC   .                       Wharton   :LOCATION
 CNTY   .                       Wharton   :COUNTY
 STAT   .                         Texas   :STATE
 CTRY   .                           USA   :COUNTRY
 SRVC   . Supreme Source Energy Services Inc.   :SERVICE COMPANY
 DATE   .                    01/08/2018   :LOG DATE
  API   .                  42-481-35422   :API NUMBER
ELEVKB   .F                         18.8   :Elevation KB
ELEVDF   .F                           71   :Elevation DF
ELEVGL   .F                         89.8   :Elevation GL
# MNEM   .UNIT    DATA   INFORMATION
#----------------------------------------
~Curve Information
   DEP   .F             :Depth
  gama   .API           :Gamma
   tvd   .ft            :TVD
    vs   .ft            :VS
   Inc   .0             :Inclination
   Azm   .0             :Azimuth
   ROP   .0             :ROP
   gas   .Pct           :Gas Avg
#   DEP      gama       tvd        vs       Inc       Azm       ROP       gas
#------------------------------------------------------------------------------
~ASCII LOG DATA SECTION
# ...
3607.00	85.00	3572.82	187.69	27.10	195.20	88.04	0.30
3608.00	87.00	3573.70	188.07	27.10	195.20	104.89	0.30
3609.00	53.00	3574.59	188.44	27.10	195.20	109.27	0.30
3610.00	60.00	3575.47	188.81	27.10	195.20	99.74	0.30
3611.00	53.00	3576.36	189.19	27.10	195.20	55.36	0.30
3612.00	58.00	3577.24	189.56	27.10	195.20	98.68	0.30
3613.00	71.00	3578.13	189.93	27.10	195.20	87.34	0.30
3614.00	68.00	3579.01	190.31	27.10	195.20	95.76	0.30
3615.00	70.00	3579.90	190.68	27.10	195.20	87.48	0.30
3616.00	75.00	3580.78	191.05	27.10	195.20	99.17	0.30
3617.00	81.00	3581.66	191.43	27.10	195.20	124.21	0.30
3618.00	42.00	3582.55	191.80	27.10	195.20	128.05	0.30
3619.00	34.00	3583.43	192.17	27.10	195.20	124.01	0.30
3620.00	70.00	3584.32	192.55	27.10	195.20	121.33	0.30
3621.00	65.00	3585.20	192.92	27.10	195.20	113.94	0.30
3622.00	31.00	3586.09	193.29	27.10	195.20	139.22	0.30
3623.00	54.00	3586.97	193.66	28.53	193.43	151.89	0.30
3624.00	64.00	3587.85	194.05	28.53	193.43	146.71	0.30
3625.00	62.00	3588.73	194.44	28.53	193.43	125.12	0.30
3626.00	60.00	3589.61	194.83	28.53	193.43	81.48	0.30
3627.00	61.00	3590.48	195.21	28.53	193.43	67.81	0.30
3628.00	69.00	3591.36	195.60	28.53	193.43	54.57	0.30
3629.00	66.00	3592.24	195.99	28.53	193.43	50.19	0.30
3630.00	70.00	3593.12	196.38	28.53	193.43	78.62	0.30
3631.00	65.00	3594.00	196.76	28.53	193.43	110.49	0.30
3632.00	62.00	3594.88	197.15	28.53	193.43	52.00	0.30
3633.00	64.00	3595.76	197.54	28.53	193.43	163.96	0.30
3634.00	65.00	3596.64	197.93	28.53	193.43	127.62	0.30
3635.00	66.00	3597.51	198.31	28.53	193.43	103.40	0.30
3636.00	67.00	3598.39	198.70	28.53	193.43	111.66	0.20
3637.00	68.00	3599.27	199.09	28.53	193.43	123.11	0.20
3638.00	68.00	3600.15	199.47	28.53	193.43	152.86	0.30
3639.00	63.00	3601.03	199.86	28.53	193.43	153.45	0.30
3640.00	62.00	3601.91	200.25	28.53	193.43	181.32	0.30
3641.00	65.00	3602.78	200.64	28.53	193.43	157.70	0.30
3642.00	75.00	3603.66	201.02	28.53	193.43	92.60	0.30
3643.00	81.00	3604.54	201.41	28.53	193.43	117.31	0.30
3644.00	72.00	3605.42	201.80	28.53	193.43	135.02	0.30
3645.00	66.00	3606.30	202.19	28.53	193.43	121.03	0.30
3646.00	62.00	3607.18	202.57	28.53	193.43	113.27	0.30
3647.00	65.00	3608.06	202.96	28.53	193.43	138.03	0.30
3648.00	66.00	3608.93	203.35	28.53	193.43	140.88	0.30
3649.00	61.00	3609.81	203.73	28.53	193.43	160.54	0.30
3650.00	62.00	3610.69	204.12	28.53	193.43	151.30	0.30
3651.00	56.00	3611.57	204.51	28.53	193.43	145.73	0.30
3652.00	57.00	3612.45	204.90	28.53	193.43	141.25	0.30
3653.00	55.00	3613.33	205.28	28.53	193.43	100.54	0.30
3654.00	53.00	3614.21	205.67	28.53	193.43	106.80	0.30
3655.00	58.00	3615.08	206.06	28.53	193.43	102.21	0.30
3656.00	55.00	3615.96	206.45	28.53	193.43	93.00	0.30
3657.00	52.00	3616.84	206.83	28.53	193.43	100.30	0.30
3658.00	56.00	3617.72	207.22	28.53	193.43	84.94	0.30
3659.00	51.00	3618.60	207.61	28.53	193.43	67.05	0.30
3660.00	56.00	3619.48	208.00	28.53	193.43	64.61	0.30
3661.00	61.00	3620.36	208.38	28.53	193.43	78.62	0.30
3662.00	58.00	3621.23	208.77	28.53	193.43	64.67	0.30
3663.00	54.00	3622.11	209.16	28.53	193.43	56.95	0.30
3664.00	57.00	3622.99	209.54	28.53	193.43	63.71	0.30
3665.00	56.00	3623.87	209.93	28.53	193.43	64.12	0.30
3666.00	54.00	3624.75	210.32	28.53	193.43	53.25	0.30
3667.00	58.00	3625.63	210.71	28.53	193.43	43.59	0.30
3668.00	58.00	3626.51	211.09	28.53	193.43	50.41	0.30
3669.00	56.00	3627.38	211.48	28.53	193.43	39.85	0.30
3670.00	48.00	3628.26	211.87	28.53	193.43	31.62	0.30
3671.00	50.00	3629.14	212.26	28.53	193.43	42.70	0.30
3672.00	58.00	3630.02	212.64	28.53	193.43	49.63	0.30
3673.00	57.00	3630.90	213.03	28.53	193.43	73.64	0.30
3674.00	50.00	3631.78	213.42	28.53	193.43	65.49	0.30
3675.00	60.00	3632.66	213.80	28.53	193.43	65.54	0.20
3676.00	55.00	3633.53	214.19	28.53	193.43	161.84	0.20
3677.00	58.00	3634.41	214.58	28.53	193.43	124.97	0.20
3678.00	63.00	3635.29	214.97	28.53	193.43	125.02	0.20
3679.00	59.00	3636.17	215.35	28.53	193.43	122.09	0.20
3680.00	54.00	3637.05	215.74	28.53	193.43	110.52	0.20
3681.00	58.00	3637.93	216.13	28.53	193.43	72.62	0.30
3682.00	65.00	3638.81	216.52	28.53	193.43	137.67	0.30
3683.00	65.00	3639.68	216.90	28.53	193.43	127.26	0.30
3684.00	68.00	3640.56	217.29	28.53	193.43	141.39	0.30
3685.00	58.00	3641.44	217.68	28.53	193.43	124.07	0.30
3686.00	61.00	3642.32	218.07	28.53	193.08	122.61	0.30
3687.00	59.00	3643.20	218.45	28.53	193.08	128.83	0.30
3688.00	58.00	3644.08	218.84	28.53	193.08	121.43	0.30
3689.00	62.00	3644.96	219.23	28.53	193.08	110.07	0.30
3690.00	57.00	3645.83	219.62	28.53	193.08	112.11	0.30
3691.00	53.00	3646.71	220.01	28.53	193.08	110.98	0.30
3692.00	54.00	3647.59	220.39	28.53	193.08	119.79	0.30
3693.00	57.00	3648.47	220.78	28.53	193.08	104.01	0.30
3694.00	53.00	3649.35	221.17	28.53	193.08	101.81	0.30
3695.00	57.00	3650.23	221.56	28.53	193.08	100.64	0.30
3696.00	53.00	3651.11	221.95	28.53	193.08	105.49	0.30
3697.00	50.00	3651.98	222.33	28.53	193.08	102.53	0.30
3698.00	52.00	3652.86	222.72	28.53	193.08	106.20	0.20
3699.00	53.00	3653.74	223.11	28.53	193.08	108.61	0.20
3700.00	50.00	3654.62	223.50	28.53	193.08	112.66	0.20
3701.00	54.00	3655.50	223.89	28.53	193.08	117.22	0.20
3702.00	55.00	3656.38	224.28	28.53	193.08	119.27	0.20
3703.00	55.00	3657.26	224.66	28.53	193.08	115.90	0.20
3704.00	56.00	3658.13	225.05	28.53	193.08	118.92	0.20
3705.00	58.00	3659.01	225.44	28.53	193.08	96.01	0.20
3706.00	55.00	3659.89	225.83	28.53	193.08	89.80	0.20
3707.00	54.00	3660.77	226.22	28.53	193.08	96.90	0.30
3708.00	53.00	3661.65	226.60	28.53	193.08	75.89	0.20
3709.00	63.00	3662.53	226.99	28.53	193.08	74.63	0.20
3710.00	62.00	3663.41	227.38	28.53	193.08	104.94	0.20
3711.00	60.00	3664.28	227.77	28.53	193.08	114.28	0.20
3712.00	60.00	3665.16	228.16	28.53	193.08	101.99	0.20
3713.00	60.00	3666.04	228.55	28.53	193.08	108.67	0.20
3714.00	57.00	3666.92	228.93	28.53	193.08	117.30	0.20
3715.00	68.00	3667.80	229.32	28.53	193.08	113.43	0.20
3716.00	58.00	3668.68	229.71	28.53	193.08	131.75	0.20
3717.00	58.00	3669.56	230.10	28.53	193.08	126.79	0.20
3718.00	60.00	3670.43	230.49	28.53	193.08	127.15	0.20
3719.00	70.00	3671.31	230.87	28.53	193.08	128.76	0.20
3720.00	62.00	3672.19	231.26	28.53	193.08	130.80	0.20
3721.00	60.00	3673.07	231.65	28.53	193.08	132.48	0.20
3722.00	60.00	3673.95	232.04	28.53	193.08	140.29	0.30
3723.00	60.00	3674.83	232.43	28.53	193.08	146.48	0.30
3724.00	55.00	3675.71	232.82	28.53	193.08	130.76	0.30
3725.00	58.00	3676.58	233.20	28.53	193.08	128.25	0.30
3726.00	65.00	3677.46	233.59	28.53	193.08	92.11	0.30
3727.00	66.00	3678.34	233.98	28.53	193.08	113.12	0.30
3728.00	65.00	3679.22	234.37	28.53	193.08	132.18	0.30
3729.00	65.00	3680.10	234.76	28.53	193.08	143.94	0.30
3730.00	54.00	3680.98	235.14	28.53	193.08	166.86	0.30
3731.00	31.00	3681.86	235.53	28.53	193.08	174.54	0.30
3732.00	35.00	3682.73	235.92	28.53	193.08	157.85	0.40
3733.00	35.00	3683.61	236.31	28.53	193.08	67.75	0.40
3734.00	67.00	3684.49	236.70	28.53	193.08	46.54	0.30
3735.00	57.00	3685.37	237.08	28.53	193.08	47.35	0.30
3736.00	61.00	3686.25	237.47	28.53	193.08	65.47	0.20
3737.00	59.00	3687.13	237.86	28.53	193.08	38.96	0.20
3738.00	55.00	3688.01	238.25	28.53	193.08	223.95	0.20
3739.00	34.00	3688.88	238.64	28.53	193.08	139.82	0.20
3740.00	38.00	3689.76	239.03	28.53	193.08	145.74	0.20
3741.00	55.00	3690.64	239.41	28.53	193.08	107.33	0.20
3742.00	70.00	3691.52	239.80	28.53	193.08	67.93	0.20
3743.00	70.00	3692.40	240.19	28.53	193.08	99.30	0.20
3744.00	66.00	3693.28	240.58	28.53	193.08	134.60	0.20
3745.00	70.00	3694.16	240.97	28.53	193.08	160.92	0.20
3746.00	65.00	3695.03	241.35	28.53	193.08	147.43	0.20
3747.00	76.00	3695.91	241.74	28.53	193.08	145.47	0.20
3748.00	70.00	3696.79	242.13	28.53	193.08	136.43	0.20
3749.00	63.00	3697.67	242.52	28.53	193.08	139.50	0.20
3750.00	67.00	3698.55	242.90	28.53	193.08	156.95	0.20
3751.00	71.00	3699.43	243.29	28.53	193.08	171.32	0.20
3752.00	69.00	3700.31	243.67	28.53	193.08	107.42	0.20
3753.00	68.00	3701.19	244.06	28.53	193.08	111.93	0.20
3754.00	65.00	3702.07	244.44	28.53	193.08	116.28	0.20
3755.00	65.00	3702.95	244.83	28.53	193.08	124.82	0.20
3756.00	65.00	3703.83	245.21	28.53	193.08	107.21	0.20
