~Version Information
VERS.     2.0  :CWLS LOG ASCII STANDARD - VERSION 2.0
WRAP.      NO  :ONE LINE PER DEPTH STEP
#MNEM   .UNIT                      DATA   INFORMATION
#----------------------------------------------------
~Well Information Block
 STRT   .F                      1650.00   :Start Depth
 STOP   .F                      5754.00   :Stop Depth
 STEP   .F                         1.00   :Step Value
 NULL   .                       -9999.0   :Null Value
 COMP   .              White Oak Energy   :COMPANY
 WELL   .             HC Cockburn #196H   :WELL
  FLD   .                                 :FIELD
  LOC   .                       Wharton   :LOCATION
 CNTY   .                       Wharton   :COUNTY
 STAT   .                         Texas   :STATE
 CTRY   .                           USA   :COUNTRY
 SRVC   . Supreme Source Energy Services Inc.   :SERVICE COMPANY
 DATE   .                    01/08/2018   :LOG DATE
  API   .                  42-481-35422   :API NUMBER
ELEVKB   .F                         18.8   :Elevation KB
ELEVDF   .F                           71   :Elevation DF
ELEVGL   .F                         89.8   :Elevation GL
# MNEM   .UNIT    DATA   INFORMATION
#----------------------------------------
~Curve Information
   DEP   .F             :Depth
  gama   .API           :Gamma
   tvd   .ft            :TVD
    vs   .ft            :VS
   Inc   .0             :Inclination
   Azm   .0             :Azimuth
   ROP   .0             :ROP
   gas   .Pct           :Gas Avg
#   DEP      gama       tvd        vs       Inc       Azm       ROP       gas
#------------------------------------------------------------------------------
~ASCII LOG DATA SECTION
# ...
2687.00	55.00	2686.48	21.58	2.80	216.30	58.62	-9999.00
2688.00	5.00	2687.48	21.61	2.80	216.30	56.89	-9999.00
2689.00	54.00	2688.48	21.64	2.80	216.30	35.98	-9999.00
2690.00	62.00	2689.48	21.67	2.80	216.30	108.49	-9999.00
2691.00	81.00	2690.48	21.70	2.80	216.30	104.41	-9999.00
2692.00	55.00	2691.48	21.73	2.80	216.30	96.54	-9999.00
2693.00	68.00	2692.47	21.76	2.80	216.30	90.62	-9999.00
2694.00	55.00	2693.47	21.79	2.80	216.30	1.52	-9999.00
2695.00	55.00	2694.47	21.82	2.80	216.30	99.45	-9999.00
2696.00	54.00	2695.47	21.85	2.80	216.30	86.49	-9999.00
2697.00	57.00	2696.47	21.88	2.80	216.30	73.98	0.20
2698.00	56.00	2697.47	21.91	2.80	216.30	82.67	0.20
2699.00	60.00	2698.47	21.94	2.80	216.30	93.13	0.20
2700.00	66.00	2699.47	21.97	2.80	216.30	101.65	0.20
2701.00	74.00	2700.46	22.00	2.80	216.30	101.30	0.20
2702.00	65.00	2701.46	22.03	2.80	216.30	67.64	0.20
2703.00	63.00	2702.46	22.07	2.80	216.30	140.16	0.20
2704.00	62.00	2703.46	22.10	2.80	216.30	145.76	0.20
2705.00	63.00	2704.46	22.13	2.80	216.30	200.78	0.20
2706.00	71.00	2705.46	22.16	2.80	216.30	233.29	0.20
2707.00	77.00	2706.46	22.19	2.80	216.30	213.52	0.20
2708.00	74.00	2707.45	22.22	2.80	216.30	194.52	0.20
2709.00	74.00	2708.45	22.25	2.80	216.30	132.55	0.20
2710.00	70.00	2709.45	22.28	2.80	216.30	118.41	0.20
2711.00	76.00	2710.45	22.31	2.80	216.30	118.33	0.20
2712.00	68.00	2711.45	22.34	2.80	216.30	159.14	0.20
2713.00	71.00	2712.45	22.37	2.80	216.30	144.98	0.20
2714.00	69.00	2713.45	22.40	2.80	216.30	157.59	0.20
2715.00	68.00	2714.44	22.43	2.80	216.30	157.55	0.20
2716.00	68.00	2715.44	22.46	2.80	216.30	174.76	0.20
2717.00	67.00	2716.44	22.49	2.80	216.30	136.52	0.20
2718.00	70.00	2717.44	22.52	2.80	216.30	131.35	0.20
2719.00	74.00	2718.44	22.55	2.80	216.30	105.83	0.20
2720.00	66.00	2719.44	22.58	2.80	216.30	145.49	0.20
2721.00	70.00	2720.44	22.62	2.80	216.30	142.98	0.20
2722.00	70.00	2721.44	22.65	2.80	216.30	153.67	0.20
2723.00	65.00	2722.43	22.68	2.80	216.30	133.53	0.20
2724.00	61.00	2723.43	22.71	2.80	216.30	108.45	0.20
2725.00	62.00	2724.43	22.74	2.80	216.30	118.73	0.20
2726.00	58.00	2725.43	22.77	2.80	216.30	114.46	0.20
2727.00	54.00	2726.43	22.80	2.80	216.30	116.66	0.20
2728.00	60.00	2727.43	22.83	2.80	216.30	104.73	0.20
2729.00	54.00	2728.43	22.86	2.80	216.30	91.09	0.20
2730.00	58.00	2729.42	22.89	2.80	216.30	78.92	0.20
2731.00	58.00	2730.42	22.92	2.80	216.30	53.16	0.20
2732.00	57.00	2731.42	22.95	2.80	216.30	91.80	0.20
2733.00	65.00	2732.42	22.98	2.80	216.30	91.78	0.20
2734.00	54.00	2733.42	23.01	2.80	216.30	90.88	0.20
2735.00	66.00	2734.42	23.04	2.80	216.30	85.61	0.20
2736.00	55.00	2735.42	23.07	2.80	216.30	86.52	0.20
2737.00	57.00	2736.41	23.10	2.80	216.30	89.06	0.20
2738.00	62.00	2737.41	23.13	2.80	216.30	81.24	0.20
2739.00	61.00	2738.41	23.16	2.80	216.30	76.27	0.20
2740.00	53.00	2739.41	23.20	2.80	216.30	68.75	0.20
2741.00	54.00	2740.41	23.23	2.80	216.30	75.44	0.20
2742.00	58.00	2741.41	23.26	2.80	216.30	83.73	0.20
2743.00	59.00	2742.41	23.29	2.80	216.30	85.75	0.20
2744.00	81.00	2743.41	23.32	3.20	207.50	75.57	0.20
2745.00	83.00	2744.40	23.36	3.20	207.50	86.52	0.20
2746.00	62.00	2745.40	23.39	3.20	207.50	89.10	0.20
2747.00	59.00	2746.40	23.43	3.20	207.50	92.47	0.20
2748.00	58.00	2747.40	23.47	3.20	207.50	102.82	0.20
2749.00	55.00	2748.40	23.50	3.20	207.50	108.18	0.20
2750.00	51.00	2749.39	23.54	3.20	207.50	109.29	0.20
2751.00	56.00	2750.39	23.58	3.20	207.50	103.61	0.20
2752.00	52.00	2751.39	23.62	3.20	207.50	39.31	0.20
2753.00	58.00	2752.39	23.65	3.20	207.50	39.46	0.20
2754.00	51.00	2753.39	23.69	3.20	207.50	40.01	0.20
2755.00	55.00	2754.38	23.73	3.20	207.50	39.63	0.20
2756.00	53.00	2755.38	23.77	3.20	207.50	39.86	0.20
2757.00	56.00	2756.38	23.80	3.20	207.50	39.87	0.20
2758.00	55.00	2757.38	23.84	3.20	207.50	39.14	0.20
2759.00	54.00	2758.38	23.88	3.20	207.50	39.63	0.20
2760.00	54.00	2759.37	23.92	3.20	207.50	65.05	0.20
2761.00	54.00	2760.37	23.95	3.20	207.50	157.92	0.20
2762.00	54.00	2761.37	23.99	3.20	207.50	154.29	0.20
2763.00	58.00	2762.37	24.03	3.20	207.50	156.02	0.20
2764.00	58.00	2763.37	24.07	3.20	207.50	154.82	0.20
2765.00	54.00	2764.36	24.10	3.20	207.50	143.17	0.20
2766.00	53.00	2765.36	24.14	3.20	207.50	146.52	0.20
2767.00	56.00	2766.36	24.18	3.20	207.50	132.40	0.20
2768.00	59.00	2767.36	24.22	3.20	207.50	134.49	0.20
2769.00	59.00	2768.36	24.25	3.20	207.50	132.67	0.20
2770.00	58.00	2769.35	24.29	3.20	207.50	133.82	0.20
2771.00	58.00	2770.35	24.33	3.20	207.50	137.06	0.20
2772.00	56.00	2771.35	24.37	3.20	207.50	138.88	0.20
2773.00	55.00	2772.35	24.40	3.20	207.50	133.79	0.20
2774.00	60.00	2773.35	24.44	3.20	207.50	118.43	0.20
2775.00	60.00	2774.35	24.48	3.20	207.50	124.26	0.20
2776.00	61.00	2775.34	24.52	3.20	207.50	132.50	0.20
2777.00	61.00	2776.34	24.55	3.20	207.50	141.11	0.20
2778.00	64.00	2777.34	24.59	3.20	207.50	140.42	0.20
2779.00	65.00	2778.34	24.63	3.20	207.50	133.77	0.20
2780.00	61.00	2779.34	24.67	3.20	207.50	137.11	0.20
2781.00	60.00	2780.33	24.70	3.20	207.50	129.94	0.20
2782.00	49.00	2781.33	24.74	3.20	207.50	79.73	0.20
2783.00	49.00	2782.33	24.78	3.20	207.50	91.82	0.20
2784.00	47.00	2783.33	24.82	3.20	207.50	154.43	0.20
2785.00	41.00	2784.33	24.85	3.20	207.50	221.55	0.20
2786.00	42.00	2785.32	24.89	3.20	207.50	217.07	0.20
2787.00	42.00	2786.32	24.93	3.20	207.50	218.66	0.20
2788.00	43.00	2787.32	24.97	3.20	207.50	216.93	0.20
2789.00	43.00	2788.32	25.00	3.20	207.50	216.07	0.20
2790.00	51.00	2789.32	25.04	3.20	207.50	199.34	0.20
2791.00	54.00	2790.31	25.08	3.20	207.50	195.47	0.20
2792.00	55.00	2791.31	25.11	3.20	207.50	155.20	0.20
2793.00	58.00	2792.31	25.15	3.20	207.50	44.16	0.20
2794.00	58.00	2793.31	25.19	3.20	207.50	10.31	0.20
2795.00	59.00	2794.31	25.23	3.20	207.50	70.83	0.20
2796.00	59.00	2795.31	25.26	3.20	207.50	20.45	0.20
2797.00	74.00	2796.30	25.30	3.20	207.50	61.63	0.20
2798.00	75.00	2797.30	25.34	3.20	207.50	88.81	0.20
2799.00	57.00	2798.30	25.38	3.20	207.50	60.48	0.20
2800.00	95.00	2799.30	25.41	3.20	207.50	72.80	0.20
2801.00	123.00	2800.30	25.45	3.20	207.50	120.74	0.20
2802.00	65.00	2801.29	25.49	3.20	207.50	153.31	0.20
2803.00	43.00	2802.29	25.53	3.20	207.50	173.46	0.20
2804.00	57.00	2803.29	25.56	3.20	207.50	155.03	0.20
2805.00	52.00	2804.29	25.60	3.20	207.50	91.49	0.20
2806.00	49.00	2805.29	25.64	3.90	212.40	129.48	0.20
2807.00	53.00	2806.28	25.69	3.90	212.40	243.32	0.20
2808.00	50.00	2807.28	25.73	3.90	212.40	244.71	0.20
2809.00	48.00	2808.28	25.78	3.90	212.40	240.28	0.20
2810.00	47.00	2809.27	25.83	3.90	212.40	147.16	0.20
2811.00	55.00	2810.27	25.87	3.90	212.40	207.49	0.20
2812.00	64.00	2811.27	25.92	3.90	212.40	165.18	0.20
2813.00	65.00	2812.27	25.97	3.90	212.40	234.96	0.20
2814.00	66.00	2813.26	26.01	3.90	212.40	270.20	0.20
2815.00	67.00	2814.26	26.06	3.90	212.40	122.75	0.20
2816.00	58.00	2815.26	26.11	3.90	212.40	135.90	0.20
2817.00	59.00	2816.25	26.16	3.90	212.40	146.69	0.20
2818.00	71.00	2817.25	26.20	3.90	212.40	122.20	0.20
2819.00	61.00	2818.25	26.25	3.90	212.40	239.47	0.20
2820.00	79.00	2819.24	26.30	3.90	212.40	236.86	0.20
2821.00	76.00	2820.24	26.34	3.90	212.40	189.47	0.20
2822.00	67.00	2821.24	26.39	3.90	212.40	139.56	0.20
2823.00	65.00	2822.24	26.44	3.90	212.40	97.69	0.20
2824.00	59.00	2823.23	26.48	3.90	212.40	107.05	0.20
2825.00	66.00	2824.23	26.53	3.90	212.40	95.59	0.20
2826.00	70.00	2825.23	26.58	3.90	212.40	104.40	0.20
2827.00	69.00	2826.22	26.63	3.90	212.40	107.91	0.20
2828.00	68.00	2827.22	26.67	3.90	212.40	35.49	0.20
2829.00	63.00	2828.22	26.72	3.90	212.40	207.21	0.20
2830.00	70.00	2829.21	26.77	3.90	212.40	181.85	0.20
2831.00	70.00	2830.21	26.81	3.90	212.40	228.80	0.20
2832.00	71.00	2831.21	26.86	3.90	212.40	216.40	0.20
2833.00	72.00	2832.21	26.91	3.90	212.40	130.38	0.20
2834.00	71.00	2833.20	26.95	3.90	212.40	133.71	0.20
2835.00	66.00	2834.20	27.00	3.90	212.40	135.03	0.20
2836.00	66.00	2835.20	27.05	3.90	212.40	106.66	0.20
2837.00	66.00	2836.19	27.09	3.90	212.40	115.66	0.20
2838.00	70.00	2837.19	27.14	3.90	212.40	153.13	0.20
2839.00	64.00	2838.19	27.19	3.90	212.40	137.52	0.20
2840.00	65.00	2839.19	27.24	3.90	212.40	162.05	0.20
2841.00	78.00	2840.18	27.28	3.90	212.40	163.19	0.20
