~Version Information
VERS.     2.0  :CWLS LOG ASCII STANDARD - VERSION 2.0
WRAP.      NO  :ONE LINE PER DEPTH STEP
#MNEM   .UNIT                      DATA   INFORMATION
#----------------------------------------------------
~Well Information Block
 STRT   .F                      1650.00   :Start Depth
 STOP   .F                      5754.00   :Stop Depth
 STEP   .F                         1.00   :Step Value
 NULL   .                       -9999.0   :Null Value
 COMP   .              White Oak Energy   :COMPANY
 WELL   .             HC Cockburn #196H   :WELL
  FLD   .                                 :FIELD
  LOC   .                       Wharton   :LOCATION
 CNTY   .                       Wharton   :COUNTY
 STAT   .                         Texas   :STATE
 CTRY   .                           USA   :COUNTRY
 SRVC   . Supreme Source Energy Services Inc.   :SERVICE COMPANY
 DATE   .                    01/08/2018   :LOG DATE
  API   .                  42-481-35422   :API NUMBER
ELEVKB   .F                         18.8   :Elevation KB
ELEVDF   .F                           71   :Elevation DF
ELEVGL   .F                         89.8   :Elevation GL
# MNEM   .UNIT    DATA   INFORMATION
#----------------------------------------
~Curve Information
   DEP   .F             :Depth
  gama   .API           :Gamma
   tvd   .ft            :TVD
    vs   .ft            :VS
   Inc   .0             :Inclination
   Azm   .0             :Azimuth
   ROP   .0             :ROP
   gas   .Pct           :Gas Avg
#   DEP      gama       tvd        vs       Inc       Azm       ROP       gas
#------------------------------------------------------------------------------
~ASCII LOG DATA SECTION
# ...
2538.00	52.00	2537.62	19.15	2.47	231.04	104.04	-9999.00
2539.00	54.00	2538.61	19.16	2.47	231.04	133.56	-9999.00
2540.00	54.00	2539.61	19.17	2.47	231.04	106.77	-9999.00
2541.00	56.00	2540.61	19.18	2.47	231.04	109.86	-9999.00
2542.00	49.00	2541.61	19.20	2.47	231.04	139.44	-9999.00
2543.00	58.00	2542.61	19.21	2.47	231.04	225.78	-9999.00
2544.00	54.00	2543.61	19.22	2.47	231.04	296.10	-9999.00
2545.00	56.00	2544.61	19.23	2.47	231.04	281.75	-9999.00
2546.00	50.00	2545.61	19.24	2.47	231.04	106.54	-9999.00
2547.00	63.00	2546.61	19.26	2.47	231.04	214.29	-9999.00
2548.00	61.00	2547.61	19.27	2.47	231.04	95.04	-9999.00
2549.00	59.00	2548.60	19.28	2.47	231.04	106.51	-9999.00
2550.00	49.00	2549.60	19.29	2.47	231.04	107.95	-9999.00
2551.00	51.00	2550.60	19.30	2.47	231.04	115.37	-9999.00
2552.00	46.00	2551.60	19.32	2.47	231.04	229.13	-9999.00
2553.00	53.00	2552.60	19.33	2.47	231.04	239.73	-9999.00
2554.00	61.00	2553.60	19.34	2.47	231.40	228.70	-9999.00
2555.00	55.00	2554.60	19.35	2.47	231.40	254.90	-9999.00
2556.00	54.00	2555.60	19.37	2.47	231.40	204.84	-9999.00
2557.00	50.00	2556.60	19.38	2.47	231.40	138.81	-9999.00
2558.00	50.00	2557.60	19.39	2.47	231.40	231.38	-9999.00
2559.00	56.00	2558.60	19.40	2.47	231.40	222.84	-9999.00
2560.00	64.00	2559.60	19.42	2.47	231.40	233.82	-9999.00
2561.00	70.00	2560.59	19.43	2.47	231.40	232.31	-9999.00
2562.00	73.00	2561.59	19.44	2.47	231.40	222.29	-9999.00
2563.00	77.00	2562.59	19.46	2.47	231.40	126.35	-9999.00
2564.00	60.00	2563.59	19.47	2.47	231.40	154.50	-9999.00
2565.00	58.00	2564.59	19.48	2.47	231.40	141.44	-9999.00
2566.00	52.00	2565.59	19.49	2.47	231.40	139.70	-9999.00
2567.00	52.00	2566.59	19.51	2.47	231.40	162.68	-9999.00
2568.00	44.00	2567.59	19.52	2.47	231.40	139.20	-9999.00
2569.00	51.00	2568.59	19.53	2.47	231.40	150.12	-9999.00
2570.00	51.00	2569.59	19.55	2.47	231.40	215.79	-9999.00
2571.00	51.00	2570.59	19.56	2.47	231.40	239.83	-9999.00
2572.00	54.00	2571.59	19.57	2.47	231.40	235.65	-9999.00
2573.00	56.00	2572.59	19.58	2.47	231.40	235.85	-9999.00
2574.00	47.00	2573.58	19.60	2.47	231.40	236.29	-9999.00
2575.00	49.00	2574.58	19.61	2.47	231.40	235.57	-9999.00
2576.00	50.00	2575.58	19.62	2.47	231.40	236.23	-9999.00
2577.00	52.00	2576.58	19.64	2.47	231.40	236.25	-9999.00
2578.00	54.00	2577.58	19.65	2.47	231.40	206.52	-9999.00
2579.00	45.00	2578.58	19.66	2.47	231.40	217.17	-9999.00
2580.00	47.00	2579.58	19.67	2.47	231.40	217.54	-9999.00
2581.00	49.00	2580.58	19.69	2.47	231.40	217.30	-9999.00
2582.00	50.00	2581.58	19.70	2.47	231.40	215.82	-9999.00
2583.00	54.00	2582.58	19.71	2.47	231.40	151.02	-9999.00
2584.00	58.00	2583.58	19.73	2.47	231.40	202.17	-9999.00
2585.00	61.00	2584.58	19.74	2.47	231.40	129.95	-9999.00
2586.00	65.00	2585.57	19.75	2.47	231.40	159.37	-9999.00
2587.00	68.00	2586.57	19.76	2.47	231.40	208.02	-9999.00
2588.00	69.00	2587.57	19.78	2.47	231.40	217.58	-9999.00
2589.00	68.00	2588.57	19.79	2.47	231.40	195.14	-9999.00
2590.00	68.00	2589.57	19.80	2.47	231.40	202.36	-9999.00
2591.00	57.00	2590.57	19.82	2.47	231.40	221.34	-9999.00
2592.00	58.00	2591.57	19.83	2.47	231.40	218.29	-9999.00
2593.00	61.00	2592.57	19.84	2.47	231.40	217.11	-9999.00
2594.00	70.00	2593.57	19.85	2.47	231.40	194.98	-9999.00
2595.00	60.00	2594.57	19.87	2.47	231.40	100.45	-9999.00
2596.00	62.00	2595.57	19.88	2.47	231.40	95.39	-9999.00
2597.00	65.00	2596.57	19.89	2.47	231.40	94.66	-9999.00
2598.00	67.00	2597.57	19.91	2.47	231.40	97.89	-9999.00
2599.00	71.00	2598.56	19.92	2.47	231.40	93.77	-9999.00
2600.00	55.00	2599.56	19.93	2.47	231.40	105.38	-9999.00
2601.00	63.00	2600.56	19.94	2.47	231.40	106.42	-9999.00
2602.00	64.00	2601.56	19.96	2.47	231.40	44.87	-9999.00
2603.00	63.00	2602.56	19.97	2.47	231.40	153.96	-9999.00
2604.00	61.00	2603.56	19.98	2.47	231.40	139.14	-9999.00
2605.00	59.00	2604.56	20.00	2.47	231.40	129.09	-9999.00
2606.00	80.00	2605.56	20.01	2.47	231.40	114.53	-9999.00
2607.00	59.00	2606.56	20.02	2.47	231.40	101.53	-9999.00
2608.00	64.00	2607.56	20.03	2.47	231.40	101.21	0.20
2609.00	58.00	2608.56	20.05	2.47	231.40	98.88	0.20
2610.00	67.00	2609.56	20.06	2.47	231.40	98.19	0.10
2611.00	65.00	2610.55	20.07	2.47	231.40	141.64	0.10
2612.00	55.00	2611.55	20.09	2.47	231.40	224.72	0.10
2613.00	52.00	2612.55	20.10	2.47	231.40	281.45	0.10
2614.00	53.00	2613.55	20.11	2.47	231.40	229.95	0.10
2615.00	55.00	2614.55	20.12	2.47	231.40	251.26	0.10
2616.00	57.00	2615.55	20.14	2.47	231.40	299.40	0.10
2617.00	59.00	2616.55	20.15	2.47	231.40	338.89	0.10
2618.00	60.00	2617.55	20.16	2.11	225.42	377.22	0.10
2619.00	62.00	2618.55	20.18	2.11	225.42	380.42	0.10
2620.00	63.00	2619.55	20.20	2.11	225.42	381.64	0.10
2621.00	65.00	2620.55	20.22	2.11	225.42	177.10	0.10
2622.00	66.00	2621.55	20.24	2.11	225.42	220.69	0.10
2623.00	67.00	2622.54	20.26	2.11	225.42	237.22	0.10
2624.00	69.00	2623.54	20.28	2.11	225.42	237.16	0.10
2625.00	70.00	2624.54	20.30	2.11	225.42	236.22	0.10
2626.00	72.00	2625.54	20.32	2.11	225.42	237.19	0.10
2627.00	73.00	2626.54	20.34	2.11	225.42	236.24	0.10
2628.00	75.00	2627.54	20.36	2.11	225.42	234.34	0.20
2629.00	75.00	2628.54	20.38	2.11	225.42	111.87	0.20
2630.00	71.00	2629.54	20.40	2.11	225.42	121.45	0.20
2631.00	75.00	2630.54	20.42	2.11	225.42	129.08	0.20
2632.00	75.00	2631.54	20.44	2.11	225.42	149.43	0.20
2633.00	98.00	2632.54	20.46	2.11	225.42	146.50	0.10
2634.00	82.00	2633.53	20.47	2.11	225.42	153.63	0.10
2635.00	76.00	2634.53	20.49	2.11	225.42	155.26	0.20
2636.00	66.00	2635.53	20.51	2.11	225.42	164.31	0.20
2637.00	74.00	2636.53	20.53	2.11	225.42	160.76	0.20
2638.00	70.00	2637.53	20.55	2.11	225.42	147.59	0.20
2639.00	71.00	2638.53	20.57	2.11	225.42	133.29	0.20
2640.00	65.00	2639.53	20.59	2.11	225.42	129.63	0.20
2641.00	62.00	2640.53	20.61	2.11	225.42	120.36	0.20
2642.00	57.00	2641.53	20.63	2.11	225.42	125.06	0.20
2643.00	65.00	2642.53	20.65	2.11	225.42	124.16	0.20
2644.00	63.00	2643.53	20.67	2.11	225.42	107.47	0.20
2645.00	65.00	2644.52	20.69	2.11	225.42	112.22	0.20
2646.00	66.00	2645.52	20.71	2.11	225.42	120.78	0.20
2647.00	67.00	2646.52	20.73	2.11	225.42	120.26	0.20
2648.00	66.00	2647.52	20.75	2.11	225.42	112.44	0.20
2649.00	66.00	2648.52	20.77	2.11	225.42	117.90	0.20
2650.00	70.00	2649.52	20.79	2.11	225.42	116.83	0.20
2651.00	67.00	2650.52	20.81	2.11	225.42	111.32	0.20
2652.00	71.00	2651.52	20.83	2.11	225.42	100.20	0.20
2653.00	66.00	2652.52	20.85	2.11	225.42	95.31	0.20
2654.00	66.00	2653.52	20.87	2.11	225.42	111.02	0.20
2655.00	71.00	2654.52	20.89	2.11	225.42	122.49	0.20
2656.00	70.00	2655.51	20.90	2.11	225.42	130.64	0.20
2657.00	66.00	2656.51	20.92	2.11	225.42	147.10	0.20
2658.00	65.00	2657.51	20.94	2.11	225.42	143.80	0.20
2659.00	73.00	2658.51	20.96	2.11	225.42	134.46	0.20
2660.00	64.00	2659.51	20.98	2.11	225.42	145.77	0.20
2661.00	60.00	2660.51	21.00	2.11	225.42	143.81	0.20
2662.00	55.00	2661.51	21.02	2.11	225.42	134.21	0.20
2663.00	50.00	2662.51	21.04	2.11	225.42	96.53	0.20
2664.00	45.00	2663.51	21.06	2.11	225.42	77.21	0.20
2665.00	40.00	2664.51	21.08	2.11	225.42	74.79	0.20
2666.00	35.00	2665.50	21.10	2.11	225.42	69.04	0.20
2667.00	30.00	2666.50	21.12	2.11	225.42	68.99	0.20
2668.00	25.00	2667.50	21.14	2.11	225.42	68.97	0.20
2669.00	20.00	2668.50	21.16	2.11	225.42	68.96	0.20
2670.00	15.00	2669.50	21.18	2.11	225.42	62.86	0.20
2671.00	10.00	2670.50	21.20	2.11	225.42	84.95	0.20
2672.00	5.00	2671.50	21.22	2.11	225.42	80.95	0.20
2673.00	1.00	2672.50	21.24	2.11	225.42	2.95	0.20
2674.00	60.00	2673.50	21.26	2.11	225.42	120.07	0.20
2675.00	81.00	2674.50	21.28	2.11	225.42	76.04	0.20
2676.00	7.00	2675.50	21.30	2.11	225.42	75.94	0.20
2677.00	8.00	2676.49	21.31	2.11	225.42	89.40	0.20
2678.00	9.00	2677.49	21.33	2.11	225.42	51.57	-9999.00
2679.00	9.00	2678.49	21.35	2.11	225.42	51.26	-9999.00
2680.00	67.00	2679.49	21.37	2.11	225.42	36.21	-9999.00
2681.00	70.00	2680.49	21.39	2.80	216.30	53.50	-9999.00
2682.00	117.00	2681.49	21.42	2.80	216.30	45.80	-9999.00
2683.00	110.00	2682.49	21.45	2.80	216.30	52.54	-9999.00
2684.00	61.00	2683.49	21.48	2.80	216.30	64.49	-9999.00
2685.00	54.00	2684.49	21.52	2.80	216.30	66.24	-9999.00
2686.00	7.00	2685.48	21.55	2.80	216.30	63.79	-9999.00
