~Version Information
VERS.     2.0  :CWLS LOG ASCII STANDARD - VERSION 2.0
WRAP.      NO  :ONE LINE PER DEPTH STEP
#MNEM   .UNIT                      DATA   INFORMATION
#----------------------------------------------------
~Well Information Block
 STRT   .F                      1650.00   :Start Depth
 STOP   .F                      5754.00   :Stop Depth
 STEP   .F                         1.00   :Step Value
 NULL   .                       -9999.0   :Null Value
 COMP   .              White Oak Energy   :COMPANY
 WELL   .             HC Cockburn #196H   :WELL
  FLD   .                                 :FIELD
  LOC   .                       Wharton   :LOCATION
 CNTY   .                       Wharton   :COUNTY
 STAT   .                         Texas   :STATE
 CTRY   .                           USA   :COUNTRY
 SRVC   . Supreme Source Energy Services Inc.   :SERVICE COMPANY
 DATE   .                    01/08/2018   :LOG DATE
  API   .                  42-481-35422   :API NUMBER
ELEVKB   .F                         18.8   :Elevation KB
ELEVDF   .F                           71   :Elevation DF
ELEVGL   .F                         89.8   :Elevation GL
# MNEM   .UNIT    DATA   INFORMATION
#----------------------------------------
~Curve Information
   DEP   .F             :Depth
  gama   .API           :Gamma
   tvd   .ft            :TVD
    vs   .ft            :VS
   Inc   .0             :Inclination
   Azm   .0             :Azimuth
   ROP   .0             :ROP
   gas   .Pct           :Gas Avg
#   DEP      gama       tvd        vs       Inc       Azm       ROP       gas
#------------------------------------------------------------------------------
~ASCII LOG DATA SECTION
# ...
1818.00	40.00	1817.82	16.99	0.70	254.60	285.51	-9999.00
1819.00	38.00	1818.82	16.98	0.70	254.60	370.79	-9999.00
1820.00	42.00	1819.82	16.98	0.70	254.60	387.79	-9999.00
1821.00	35.00	1820.82	16.98	0.70	254.60	342.57	-9999.00
1822.00	37.00	1821.82	16.98	0.70	254.60	355.71	-9999.00
1823.00	38.00	1822.82	16.97	0.70	254.60	351.52	-9999.00
1824.00	49.00	1823.82	16.97	0.70	254.60	334.47	-9999.00
1825.00	52.00	1824.82	16.97	0.70	254.60	306.44	-9999.00
1826.00	74.00	1825.82	16.97	0.70	254.60	183.49	-9999.00
1827.00	70.00	1826.82	16.96	0.70	254.60	191.61	-9999.00
1828.00	66.00	1827.82	16.96	0.70	254.60	164.43	-9999.00
1829.00	66.00	1828.82	16.96	0.70	254.60	184.12	-9999.00
1830.00	66.00	1829.82	16.96	0.70	254.60	201.28	-9999.00
1831.00	63.00	1830.82	16.95	0.70	254.60	181.21	-9999.00
1832.00	53.00	1831.82	16.95	0.70	254.60	147.61	-9999.00
1833.00	52.00	1832.82	16.95	0.70	254.60	134.39	-9999.00
1834.00	56.00	1833.82	16.94	0.70	254.60	144.51	-9999.00
1835.00	58.00	1834.82	16.94	0.70	254.60	139.72	-9999.00
1836.00	59.00	1835.82	16.94	0.70	254.60	120.46	-9999.00
1837.00	60.00	1836.82	16.94	0.70	254.60	133.61	-9999.00
1838.00	66.00	1837.82	16.93	0.70	254.60	143.83	-9999.00
1839.00	63.00	1838.82	16.93	0.70	254.60	159.49	-9999.00
1840.00	63.00	1839.82	16.93	0.70	254.60	167.38	-9999.00
1841.00	63.00	1840.82	16.93	0.70	254.60	145.20	-9999.00
1842.00	70.00	1841.82	16.92	0.70	254.60	135.57	-9999.00
1843.00	52.00	1842.82	16.92	0.70	254.60	162.59	-9999.00
1844.00	61.00	1843.82	16.92	0.70	254.60	42.93	-9999.00
1845.00	60.00	1844.82	16.91	0.70	254.60	190.40	-9999.00
1846.00	63.00	1845.82	16.91	0.70	254.60	64.29	-9999.00
1847.00	77.00	1846.82	16.91	0.70	254.60	47.61	-9999.00
1848.00	70.00	1847.82	16.91	0.70	254.60	165.45	-9999.00
1849.00	68.00	1848.82	16.90	0.70	254.60	138.02	-9999.00
1850.00	65.00	1849.82	16.90	0.70	254.60	152.22	-9999.00
1851.00	56.00	1850.82	16.90	0.70	254.60	160.41	-9999.00
1852.00	54.00	1851.82	16.90	0.70	254.60	154.14	-9999.00
1853.00	57.00	1852.82	16.89	0.70	254.60	181.51	-9999.00
1854.00	58.00	1853.82	16.89	0.70	254.60	224.82	-9999.00
1855.00	60.00	1854.82	16.89	0.70	254.60	203.88	-9999.00
1856.00	75.00	1855.82	16.89	0.70	254.60	348.28	-9999.00
1857.00	81.00	1856.82	16.88	0.70	254.60	51.24	-9999.00
1858.00	63.00	1857.82	16.88	0.70	254.60	180.48	-9999.00
1859.00	71.00	1858.82	16.88	0.70	254.60	188.16	-9999.00
1860.00	78.00	1859.82	16.87	0.70	254.60	219.68	-9999.00
1861.00	78.00	1860.82	16.87	0.70	254.60	240.65	-9999.00
1862.00	77.00	1861.82	16.87	0.70	254.60	226.57	-9999.00
1863.00	63.00	1862.82	16.87	0.70	265.80	206.29	-9999.00
1864.00	68.00	1863.82	16.86	0.70	265.80	209.48	-9999.00
1865.00	71.00	1864.82	16.86	0.70	265.80	208.51	-9999.00
1866.00	75.00	1865.82	16.86	0.70	265.80	264.74	-9999.00
1867.00	76.00	1866.82	16.85	0.70	265.80	302.83	-9999.00
1868.00	76.00	1867.82	16.85	0.70	265.80	288.90	-9999.00
1869.00	76.00	1868.82	16.85	0.70	265.80	169.98	-9999.00
1870.00	76.00	1869.82	16.84	0.70	265.80	160.98	-9999.00
1871.00	76.00	1870.82	16.84	0.70	265.80	176.01	-9999.00
1872.00	76.00	1871.82	16.84	0.70	265.80	157.87	-9999.00
1873.00	76.00	1872.82	16.83	0.70	265.80	143.94	-9999.00
1874.00	76.00	1873.82	16.83	0.70	265.80	145.05	-9999.00
1875.00	76.00	1874.82	16.83	0.70	265.80	156.49	-9999.00
1876.00	76.00	1875.82	16.82	0.70	265.80	200.92	-9999.00
1877.00	76.00	1876.82	16.82	0.70	265.80	222.50	-9999.00
1878.00	76.00	1877.82	16.82	0.70	265.80	223.92	-9999.00
1879.00	76.00	1878.82	16.81	0.70	265.80	224.92	-9999.00
1880.00	76.00	1879.82	16.81	0.70	265.80	220.24	-9999.00
1881.00	50.00	1880.82	16.81	0.70	265.80	253.47	-9999.00
1882.00	54.00	1881.82	16.80	0.70	265.80	273.15	-9999.00
1883.00	58.00	1882.82	16.80	0.70	265.80	270.65	-9999.00
1884.00	59.00	1883.82	16.80	0.70	265.80	217.94	-9999.00
1885.00	53.00	1884.82	16.80	0.70	265.80	229.36	-9999.00
1886.00	50.00	1885.82	16.79	0.70	265.80	244.29	-9999.00
1887.00	48.00	1886.82	16.79	0.70	265.80	194.00	-9999.00
1888.00	64.00	1887.82	16.79	0.70	265.80	114.24	-9999.00
1889.00	61.00	1888.82	16.78	0.70	265.80	88.94	-9999.00
1890.00	61.00	1889.82	16.78	0.70	265.80	110.02	-9999.00
1891.00	65.00	1890.82	16.78	0.70	265.80	121.84	-9999.00
1892.00	71.00	1891.82	16.77	0.70	265.80	148.30	-9999.00
1893.00	71.00	1892.82	16.77	0.70	265.80	119.05	-9999.00
1894.00	71.00	1893.82	16.77	0.70	265.80	128.31	-9999.00
1895.00	71.00	1894.82	16.76	0.70	265.80	125.67	-9999.00
1896.00	67.00	1895.82	16.76	0.70	265.80	123.25	-9999.00
1897.00	65.00	1896.82	16.76	0.70	265.80	142.69	-9999.00
1898.00	62.00	1897.82	16.75	0.70	265.80	151.33	-9999.00
1899.00	56.00	1898.82	16.75	0.70	265.80	102.85	-9999.00
1900.00	46.00	1899.82	16.75	0.70	265.80	118.15	-9999.00
1901.00	44.00	1900.82	16.74	0.70	265.80	111.70	-9999.00
1902.00	45.00	1901.82	16.74	0.70	265.80	118.32	-9999.00
1903.00	45.00	1902.82	16.74	0.70	265.80	138.96	-9999.00
1904.00	38.00	1903.81	16.73	0.70	265.80	165.88	-9999.00
1905.00	41.00	1904.81	16.73	0.70	265.80	153.94	-9999.00
1906.00	39.00	1905.81	16.73	0.70	265.80	141.80	-9999.00
1907.00	39.00	1906.81	16.72	0.70	265.80	98.31	-9999.00
1908.00	39.00	1907.81	16.72	0.70	265.80	223.78	-9999.00
1909.00	36.00	1908.81	16.72	0.70	265.80	229.05	-9999.00
1910.00	33.00	1909.81	16.71	0.70	265.80	47.86	-9999.00
1911.00	32.00	1910.81	16.71	0.70	265.80	193.25	-9999.00
1912.00	36.00	1911.81	16.71	0.70	265.80	338.83	-9999.00
1913.00	36.00	1912.81	16.70	0.70	265.80	352.01	-9999.00
1914.00	32.00	1913.81	16.70	0.70	265.80	348.14	-9999.00
1915.00	31.00	1914.81	16.70	0.70	265.80	338.71	-9999.00
1916.00	39.00	1915.81	16.69	0.70	265.80	305.80	-9999.00
1917.00	38.00	1916.81	16.69	0.70	265.80	307.47	-9999.00
1918.00	31.00	1917.81	16.69	0.70	265.80	312.14	-9999.00
1919.00	31.00	1918.81	16.69	0.70	265.80	222.21	-9999.00
1920.00	31.00	1919.81	16.68	0.70	265.80	241.68	-9999.00
1921.00	33.00	1920.81	16.68	0.70	265.80	305.71	-9999.00
1922.00	34.00	1921.81	16.68	0.70	265.80	319.40	-9999.00
1923.00	29.00	1922.81	16.67	0.70	265.80	317.84	-9999.00
1924.00	31.00	1923.81	16.67	0.70	265.80	319.16	-9999.00
1925.00	37.00	1924.81	16.67	0.70	265.80	321.21	-9999.00
1926.00	42.00	1925.81	16.66	1.06	255.60	348.22	-9999.00
1927.00	45.00	1926.81	16.66	1.06	255.60	404.03	-9999.00
1928.00	37.00	1927.81	16.66	1.06	255.60	398.36	-9999.00
1929.00	31.00	1928.81	16.65	1.06	255.60	352.64	-9999.00
1930.00	31.00	1929.81	16.65	1.06	255.60	347.85	-9999.00
1931.00	31.00	1930.81	16.65	1.06	255.60	352.39	-9999.00
1932.00	31.00	1931.81	16.64	1.06	255.60	340.34	-9999.00
1933.00	41.00	1932.81	16.64	1.06	255.60	183.91	-9999.00
1934.00	43.00	1933.81	16.64	1.06	255.60	155.89	-9999.00
1935.00	45.00	1934.81	16.64	1.06	255.60	200.14	-9999.00
1936.00	46.00	1935.81	16.63	1.06	255.60	182.89	-9999.00
1937.00	47.00	1936.81	16.63	1.06	255.60	232.48	-9999.00
1938.00	49.00	1937.81	16.63	1.06	255.60	239.85	-9999.00
1939.00	69.00	1938.81	16.62	1.06	255.60	202.55	-9999.00
1940.00	61.00	1939.81	16.62	1.06	255.60	232.40	-9999.00
1941.00	57.00	1940.81	16.62	1.06	255.60	235.96	-9999.00
1942.00	56.00	1941.81	16.62	1.06	255.60	237.03	-9999.00
1943.00	58.00	1942.81	16.61	1.06	255.60	236.25	-9999.00
1944.00	58.00	1943.81	16.61	1.06	255.60	235.77	-9999.00
1945.00	25.00	1944.81	16.61	1.06	255.60	237.12	-9999.00
1946.00	38.00	1945.81	16.60	1.06	255.60	236.18	-9999.00
1947.00	46.00	1946.81	16.60	1.06	255.60	236.33	-9999.00
1948.00	54.00	1947.81	16.60	1.06	255.60	228.42	-9999.00
1949.00	59.00	1948.81	16.59	1.06	255.60	216.68	-9999.00
1950.00	64.00	1949.81	16.59	1.06	255.60	217.01	-9999.00
1951.00	64.00	1950.81	16.59	1.06	255.60	217.17	-9999.00
1952.00	85.00	1951.81	16.59	1.06	255.60	216.28	-9999.00
1953.00	84.00	1952.81	16.58	1.06	255.60	216.56	-9999.00
1954.00	84.00	1953.81	16.58	1.06	255.60	216.94	-9999.00
1955.00	84.00	1954.81	16.58	1.06	255.60	216.80	-9999.00
1956.00	75.00	1955.81	16.57	1.06	255.60	216.33	-9999.00
1957.00	85.00	1956.81	16.57	1.06	255.60	217.57	-9999.00
1958.00	79.00	1957.81	16.57	1.06	255.60	216.58	-9999.00
1959.00	76.00	1958.81	16.56	1.06	255.60	217.38	-9999.00
1960.00	75.00	1959.81	16.56	1.06	255.60	216.94	-9999.00
