~Version Information
VERS.     2.0  :CWLS LOG ASCII STANDARD - VERSION 2.0
WRAP.      NO  :ONE LINE PER DEPTH STEP
#MNEM   .UNIT                      DATA   INFORMATION
#----------------------------------------------------
~Well Information Block
 STRT   .F                      1650.00   :Start Depth
 STOP   .F                      5754.00   :Stop Depth
 STEP   .F                         1.00   :Step Value
 NULL   .                       -9999.0   :Null Value
 COMP   .              White Oak Energy   :COMPANY
 WELL   .             HC Cockburn #196H   :WELL
  FLD   .                                 :FIELD
  LOC   .                       Wharton   :LOCATION
 CNTY   .                       Wharton   :COUNTY
 STAT   .                         Texas   :STATE
 CTRY   .                           USA   :COUNTRY
 SRVC   . Supreme Source Energy Services Inc.   :SERVICE COMPANY
 DATE   .                    01/08/2018   :LOG DATE
  API   .                  42-481-35422   :API NUMBER
ELEVKB   .F                         18.8   :Elevation KB
ELEVDF   .F                           71   :Elevation DF
ELEVGL   .F                         89.8   :Elevation GL
# MNEM   .UNIT    DATA   INFORMATION
#----------------------------------------
~Curve Information
   DEP   .F             :Depth
  gama   .API           :Gamma
   tvd   .ft            :TVD
    vs   .ft            :VS
   Inc   .0             :Inclination
   Azm   .0             :Azimuth
   ROP   .0             :ROP
   gas   .Pct           :Gas Avg
#   DEP      gama       tvd        vs       Inc       Azm       ROP       gas
#------------------------------------------------------------------------------
~ASCII LOG DATA SECTION
# ...
2998.00	55.00	2995.97	39.60	8.80	205.00	238.45	0.20
2999.00	48.00	2996.95	39.72	8.80	205.00	237.52	0.20
3000.00	46.00	2997.94	39.83	8.80	205.00	236.94	0.20
3001.00	49.00	2998.93	39.95	8.80	205.00	237.05	0.20
3002.00	49.00	2999.91	40.06	8.80	205.00	237.19	0.20
3003.00	57.00	3000.90	40.18	8.80	205.00	237.00	0.20
3004.00	59.00	3001.89	40.30	8.80	205.00	228.39	0.20
3005.00	51.00	3002.87	40.41	8.80	205.00	171.68	0.20
3006.00	56.00	3003.86	40.53	8.80	205.00	167.26	0.20
3007.00	51.00	3004.85	40.64	8.80	205.00	176.75	0.20
3008.00	16.00	3005.83	40.76	8.80	205.00	136.90	0.20
3009.00	39.00	3006.82	40.88	8.80	205.00	51.87	0.20
3010.00	36.00	3007.81	40.99	8.80	205.00	59.75	0.20
3011.00	39.00	3008.79	41.11	8.80	205.00	62.46	0.20
3012.00	40.00	3009.78	41.22	8.80	205.00	77.76	0.20
3013.00	41.00	3010.77	41.34	8.80	205.00	75.18	0.20
3014.00	40.00	3011.75	41.45	8.80	205.00	74.06	0.20
3015.00	43.00	3012.74	41.57	8.80	205.00	76.26	0.20
3016.00	46.00	3013.73	41.69	8.80	205.00	68.92	0.20
3017.00	48.00	3014.71	41.80	8.80	205.00	83.60	0.20
3018.00	47.00	3015.70	41.92	8.80	205.00	80.04	0.20
3019.00	49.00	3016.69	42.03	8.80	205.00	85.77	0.20
3020.00	47.00	3017.67	42.15	8.80	205.00	84.47	0.20
3021.00	48.00	3018.66	42.27	8.80	205.00	69.93	0.20
3022.00	44.00	3019.65	42.38	8.80	205.00	80.02	0.20
3023.00	47.00	3020.63	42.50	8.80	205.00	74.66	0.20
3024.00	45.00	3021.62	42.61	8.80	205.00	82.91	0.20
3025.00	48.00	3022.61	42.73	8.80	205.00	76.07	0.20
3026.00	54.00	3023.59	42.84	8.80	205.00	54.27	0.20
3027.00	54.00	3024.58	42.96	8.80	205.00	39.33	0.20
3028.00	51.00	3025.57	43.08	8.80	205.00	26.19	0.20
3029.00	46.00	3026.56	43.19	8.80	205.00	128.52	0.20
3030.00	46.00	3027.54	43.31	8.80	205.00	76.34	0.20
3031.00	52.00	3028.53	43.42	8.80	205.00	80.76	0.20
3032.00	51.00	3029.52	43.54	8.80	205.00	63.82	0.20
3033.00	51.00	3030.50	43.66	8.80	205.00	54.98	0.20
3034.00	50.00	3031.49	43.77	8.80	205.00	61.76	0.20
3035.00	54.00	3032.48	43.89	8.80	205.00	70.64	0.20
3036.00	54.00	3033.46	44.00	8.80	205.00	79.75	0.20
3037.00	58.00	3034.45	44.12	8.80	205.00	72.91	0.20
3038.00	51.00	3035.44	44.23	8.80	205.00	84.51	0.20
3039.00	53.00	3036.42	44.35	8.80	205.00	72.57	0.20
3040.00	54.00	3037.41	44.47	8.80	205.00	70.78	0.20
3041.00	54.00	3038.40	44.58	8.80	205.00	70.54	0.20
3042.00	56.00	3039.38	44.70	8.80	205.00	35.64	0.20
3043.00	54.00	3040.37	44.81	8.80	205.00	91.71	0.20
3044.00	55.00	3041.36	44.93	8.80	205.00	69.55	0.20
3045.00	56.00	3042.34	45.05	8.80	205.00	26.48	0.20
3046.00	61.00	3043.33	45.16	8.80	205.00	133.41	0.20
3047.00	55.00	3044.32	45.28	8.80	205.00	41.17	0.20
3048.00	62.00	3045.30	45.39	8.80	205.00	48.13	0.20
3049.00	63.00	3046.29	45.51	8.80	205.00	47.45	0.20
3050.00	58.00	3047.28	45.62	8.80	205.00	57.91	0.20
3051.00	54.00	3048.26	45.74	8.80	205.00	82.84	0.20
3052.00	60.00	3049.25	45.86	8.80	205.00	62.71	0.20
3053.00	55.00	3050.24	45.97	8.80	205.00	59.58	0.20
3054.00	50.00	3051.22	46.09	8.80	205.00	73.65	0.20
3055.00	58.00	3052.21	46.20	8.80	205.00	35.22	0.20
3056.00	61.00	3053.20	46.32	8.80	205.00	80.57	0.20
3057.00	56.00	3054.18	46.44	8.80	205.00	58.27	0.20
3058.00	53.00	3055.17	46.55	8.80	205.00	68.38	0.20
3059.00	60.00	3056.16	46.67	9.90	199.10	57.33	0.20
3060.00	61.00	3057.14	46.81	9.90	199.10	68.18	0.20
3061.00	55.00	3058.12	46.95	9.90	199.10	77.93	0.20
3062.00	56.00	3059.10	47.09	9.90	199.10	79.58	0.20
3063.00	60.00	3060.09	47.24	9.90	199.10	42.45	0.20
3064.00	61.00	3061.07	47.38	9.90	199.10	60.00	0.20
3065.00	59.00	3062.05	47.52	9.90	199.10	28.67	0.20
3066.00	59.00	3063.03	47.66	9.90	199.10	60.09	0.20
3067.00	58.00	3064.02	47.81	9.90	199.10	93.06	0.20
3068.00	58.00	3065.00	47.95	9.90	199.10	133.45	0.20
3069.00	58.00	3065.98	48.09	9.90	199.10	41.72	0.20
3070.00	58.00	3066.96	48.23	9.90	199.10	53.06	0.20
3071.00	64.00	3067.95	48.37	9.90	199.10	52.97	0.20
3072.00	63.00	3068.93	48.52	9.90	199.10	43.26	0.20
3073.00	66.00	3069.91	48.66	9.90	199.10	50.71	0.20
3074.00	58.00	3070.89	48.80	9.90	199.10	21.85	0.20
3075.00	65.00	3071.88	48.94	9.90	199.10	48.17	0.20
3076.00	64.00	3072.86	49.08	9.90	199.10	102.43	0.20
3077.00	58.00	3073.84	49.23	9.90	199.10	156.56	0.20
3078.00	63.00	3074.82	49.37	9.90	199.10	134.21	0.20
3079.00	47.00	3075.81	49.51	9.90	199.10	120.48	0.20
3080.00	42.00	3076.79	49.65	9.90	199.10	153.34	0.20
3081.00	38.00	3077.77	49.80	9.90	199.10	201.34	0.20
3082.00	40.00	3078.75	49.94	9.90	199.10	220.30	0.20
3083.00	43.00	3079.74	50.08	9.90	199.10	231.45	0.20
3084.00	46.00	3080.72	50.22	9.90	199.10	232.03	0.20
3085.00	43.00	3081.70	50.36	9.90	199.10	217.98	0.20
3086.00	43.00	3082.68	50.51	9.90	199.10	217.32	0.20
3087.00	43.00	3083.66	50.65	9.90	199.10	217.94	0.20
3088.00	46.00	3084.65	50.79	9.90	199.10	216.77	0.20
3089.00	58.00	3085.63	50.93	9.90	199.10	217.36	0.20
3090.00	59.00	3086.61	51.08	9.90	199.10	217.47	0.20
3091.00	60.00	3087.59	51.22	9.90	199.10	96.06	0.20
3092.00	58.00	3088.58	51.36	9.90	199.10	158.68	0.20
3093.00	63.00	3089.56	51.50	9.90	199.10	149.02	0.20
3094.00	62.00	3090.54	51.64	9.90	199.10	108.07	0.20
3095.00	58.00	3091.52	51.79	9.90	199.10	143.27	0.20
3096.00	47.00	3092.51	51.93	9.90	199.10	101.84	0.20
3097.00	43.00	3093.49	52.07	9.90	199.10	138.53	0.20
3098.00	47.00	3094.47	52.21	9.90	199.10	222.93	0.20
3099.00	48.00	3095.45	52.36	9.90	199.10	217.72	0.20
3100.00	57.00	3096.44	52.50	9.90	199.10	217.18	0.20
3101.00	58.00	3097.42	52.64	9.90	199.10	214.02	0.20
3102.00	58.00	3098.40	52.78	9.90	199.10	154.99	0.20
3103.00	51.00	3099.38	52.92	9.90	199.10	88.06	0.20
3104.00	50.00	3100.37	53.07	9.90	199.10	101.80	0.20
3105.00	56.00	3101.35	53.21	9.90	199.10	99.79	0.20
3106.00	25.00	3102.33	53.35	9.90	199.10	105.02	0.20
3107.00	54.00	3103.31	53.49	9.90	199.10	140.95	0.20
3108.00	52.00	3104.30	53.63	9.90	199.10	150.99	0.20
3109.00	51.00	3105.28	53.78	9.90	199.10	174.97	0.30
3110.00	44.00	3106.26	53.92	9.90	199.10	220.15	0.20
3111.00	46.00	3107.24	54.06	9.90	199.10	234.74	0.20
3112.00	42.00	3108.23	54.20	9.90	199.10	181.35	0.20
3113.00	41.00	3109.21	54.35	9.90	199.10	133.65	0.20
3114.00	51.00	3110.19	54.49	9.90	199.10	215.60	0.20
3115.00	52.00	3111.17	54.63	9.90	199.10	49.45	0.20
3116.00	56.00	3112.15	54.77	9.90	199.10	110.84	0.20
3117.00	49.00	3113.14	54.91	9.90	199.10	110.51	0.20
3118.00	50.00	3114.12	55.06	9.90	199.10	89.09	0.20
3119.00	54.00	3115.10	55.20	9.90	199.10	142.40	0.20
3120.00	59.00	3116.08	55.34	9.90	199.10	225.19	0.20
3121.00	53.00	3117.07	55.48	11.60	196.60	124.13	0.30
3122.00	45.00	3118.04	55.66	11.60	196.60	40.52	0.30
3123.00	42.00	3119.02	55.84	11.60	196.60	21.11	0.30
3124.00	55.00	3119.99	56.01	11.60	196.60	52.44	0.30
3125.00	49.00	3120.96	56.19	11.60	196.60	19.11	0.30
3126.00	58.00	3121.94	56.36	11.60	196.60	31.55	0.30
3127.00	61.00	3122.91	56.54	11.60	196.60	65.30	0.30
3128.00	58.00	3123.89	56.72	11.60	196.60	62.97	0.30
3129.00	57.00	3124.86	56.89	11.60	196.60	77.55	0.30
3130.00	59.00	3125.84	57.07	11.60	196.60	81.64	0.30
3131.00	56.00	3126.81	57.25	11.60	196.60	76.48	0.30
3132.00	58.00	3127.78	57.42	11.60	196.60	62.83	0.30
3133.00	52.00	3128.76	57.60	11.60	196.60	62.56	0.30
3134.00	52.00	3129.73	57.78	11.60	196.60	71.13	0.30
3135.00	55.00	3130.71	57.95	11.60	196.60	81.22	0.30
3136.00	54.00	3131.68	58.13	11.60	196.60	83.41	0.30
3137.00	54.00	3132.66	58.30	11.60	196.60	83.79	0.30
3138.00	54.00	3133.63	58.48	11.60	196.60	90.83	0.30
3139.00	52.00	3134.60	58.66	11.60	196.60	91.30	0.30
3140.00	53.00	3135.58	58.83	11.60	196.60	104.42	0.30
3141.00	53.00	3136.55	59.01	11.60	196.60	107.42	0.30
3142.00	62.00	3137.53	59.19	11.60	196.60	150.72	0.30
3143.00	66.00	3138.50	59.36	11.60	196.60	126.50	0.30
3144.00	62.00	3139.48	59.54	11.60	196.60	160.37	0.30
3145.00	60.00	3140.45	59.71	11.60	196.60	1.14	0.30
3146.00	66.00	3141.42	59.89	11.60	196.60	77.64	0.30
3147.00	76.00	3142.40	60.07	11.60	196.60	113.69	0.30
3148.00	74.00	3143.37	60.24	11.60	196.60	130.42	0.30
3149.00	75.00	3144.35	60.42	11.60	196.60	159.41	0.30
3150.00	75.00	3145.32	60.60	11.60	196.60	168.08	0.30
3151.00	72.00	3146.30	60.77	11.60	196.60	164.75	0.30
3152.00	72.00	3147.27	60.95	11.60	196.60	194.09	0.30
